{
    "version": 0.6,
    "generator": "Overpass API 0.7.62.5 1bd436f1",
    "osm3s": {
      "timestamp_osm_base": "2025-03-07T11:49:13Z",
      "copyright": "The data included in this document is from www.openstreetmap.org. The data is made available under ODbL."
    },
    "elements": [
  
  {
    "type": "node",
    "id": 34582421,
    "lat": -22.9494891,
    "lon": -43.1561568,
    "tags": {
      "ele": "392",
      "int_name": "Sugarloaf Mountain",
      "name": "Pão de Açúcar",
      "name:de": "Zuckerhut",
      "name:en": "Sugarloaf",
      "name:nl": "Suikerbroodberg",
      "name:pl": "Głowa Cukru",
      "name:pt": "Pão de Açúcar",
      "name:ru": "Сахарная голова (Пан-ди-Асукар)",
      "natural": "peak",
      "tourism": "attraction",
      "wheelchair": "yes",
      "wikidata": "Q210722",
      "wikimedia_commons": "Category:Sugarloaf Mountain",
      "wikipedia": "pt:Pão de Açúcar"
    }
  },
  {
    "type": "node",
    "id": 120021407,
    "lat": -22.5555324,
    "lon": -43.2587325,
    "tags": {
      "historic": "boundary_stone",
      "inscription": "Duque de Caxias\nPetrópolis",
      "name": "Limite de Municípios"
    }
  },
  {
    "type": "node",
    "id": 142913585,
    "lat": -22.9989820,
    "lon": -43.2829733,
    "tags": {
      "ele": "844",
      "free_flying:site": "takeoff",
      "inscription": "LAABHTEJBARRIZDABNAISINEOFRUZT",
      "name": "Pedra da Gávea",
      "name:de": "Pedra da Gávea",
      "name:fr": "Pedra da Gávea",
      "name:ru": "Педра-да-Гавеа",
      "natural": "peak",
      "source": "IPP",
      "sport": "free_flying",
      "tourism": "attraction",
      "wikidata": "Q2066357",
      "wikimedia_commons": "Category:Pedra da Gávea",
      "wikipedia": "pt:Pedra da Gávea"
    }
  },
  {
    "type": "node",
    "id": 299617139,
    "lat": -22.9745741,
    "lon": -43.2073711,
    "tags": {
      "name": "Curva do Calombo",
      "tourism": "attraction"
    }
  },
  {
    "type": "node",
    "id": 302182823,
    "lat": -22.9258988,
    "lon": -43.1762145,
    "tags": {
      "addr:city": "Rio de Janeiro",
      "addr:housenumber": "153",
      "addr:postcode": "22220-000",
      "addr:street": "Rua do Catete",
      "fee": "no",
      "name": "Museu da República",
      "old_name": "Palacete do Largo do Valdetaro;Palácio de Nova Friburgo;Palácio das Águias",
      "phone": "+55-21-32352650",
      "source": "survey",
      "tourism": "museum",
      "website": "http://www.museudarepublica.org.br/",
      "wikidata": "Q1142766",
      "wikimedia_commons": "Category:Palácio do Catete",
      "wikipedia": "pt:Museu da República"
    }
  },
  {
    "type": "node",
    "id": 320627485,
    "lat": -22.9380144,
    "lon": -43.1338914,
    "tags": {
      "castle_type": "fortress",
      "historic": "castle",
      "name": "Fortaleza de Santa Cruz da Barra",
      "start_date": "1620"
    }
  },
  {
    "type": "node",
    "id": 320913848,
    "lat": -22.9029967,
    "lon": -43.1362534,
    "tags": {
      "name": "Forte do Gragoatá",
      "tourism": "attraction"
    }
  },
  {
    "type": "node",
    "id": 322751103,
    "lat": -22.9299561,
    "lon": -43.0881088,
    "tags": {
      "ele": "270",
      "name": "Rampa Norte",
      "note": "Paraglider ramp",
      "tourism": "viewpoint",
      "wheelchair": "yes"
    }
  },
  {
    "type": "node",
    "id": 322751173,
    "lat": -22.9300719,
    "lon": -43.0877019,
    "tags": {
      "ele": "265",
      "name": "Rampa Sul",
      "note": "Paraglider ramp",
      "tourism": "viewpoint",
      "wheelchair": "yes"
    }
  },
  {
    "type": "node",
    "id": 322760544,
    "lat": -22.9369978,
    "lon": -43.1159295,
    "tags": {
      "historic": "castle",
      "name": "Forte Barão do Rio Branco"
    }
  },
  {
    "type": "node",
    "id": 322765863,
    "lat": -22.8999684,
    "lon": -43.1143159,
    "tags": {
      "created_by": "Potlatch 0.10f",
      "name": "Hotel Fagundes Varela",
      "tourism": "hotel"
    }
  },
  {
    "type": "node",
    "id": 324277900,
    "lat": -22.9451747,
    "lon": -43.0554038,
    "tags": {
      "historic": "monument"
    }
  },
  {
    "type": "node",
    "id": 331385780,
    "lat": -22.9649171,
    "lon": -43.1735562,
    "tags": {
      "artwork_type": "statue",
      "name": "Estátua Princesa Isabel",
      "name:ru": "Статуя Прицессы Изабеллы",
      "subject:wikidata": "Q464449",
      "subject:wikipedia": "pt:Isabel do Brasil",
      "tourism": "artwork",
      "wheelchair": "yes",
      "wikimedia_commons": "Category:Isabel, Princess Imperial of Brazil"
    }
  },
  {
    "type": "node",
    "id": 331954898,
    "lat": -22.9643453,
    "lon": -43.1770607,
    "tags": {
      "tourism": "hotel"
    }
  },
  {
    "type": "node",
    "id": 331956610,
    "lat": -22.9643370,
    "lon": -43.1784874,
    "tags": {
      "addr:city": "Rio de Janeiro",
      "addr:housenumber": "82",
      "addr:street": "Rua Duvivier",
      "addr:suburb": "Copacabana",
      "air_conditioning": "yes",
      "bar": "yes",
      "email": "reservas@royalrio.com",
      "internet_access": "wlan",
      "internet_access:fee": "no",
      "internet_access:ssid": "Hotel Royal Rio",
      "name": "Royal Rio Palace Hotel",
      "opening_hours": "24/7",
      "phone": "+55-21-21229292",
      "stars": "4",
      "toilets": "yes",
      "tourism": "hotel",
      "url": "http://www.royalrio.com/",
      "website": "https://royalrio.com.br/",
      "wheelchair": "designated"
    }
  },
  {
    "type": "node",
    "id": 332517973,
    "lat": -22.9185252,
    "lon": -43.1759151,
    "tags": {
      "artist_name": "Correia Lima",
      "artwork_type": "sculpture",
      "heritage": "8",
      "historic": "memorial",
      "memorial": "sculpture",
      "name": "Almirante Barroso",
      "start_date": "1909-11",
      "tourism": "artwork"
    }
  },
  {
    "type": "node",
    "id": 339536813,
    "lat": -22.9153363,
    "lon": -43.1740156,
    "tags": {
      "artist_name": "Edgard Duvivier",
      "artwork_type": "bust",
      "historic": "memorial",
      "material": "bronze",
      "memorial": "bust",
      "name": "Brigadeiro Eduardo Gomes",
      "start_date": "1996-09",
      "tourism": "artwork"
    }
  },
  {
    "type": "node",
    "id": 340473485,
    "lat": -22.9262485,
    "lon": -43.1767661,
    "tags": {
      "addr:housenumber": "160",
      "addr:postcode": "22220-000",
      "addr:street": "Rua do Catete",
      "name": "Hotel Riazor",
      "tourism": "hotel"
    }
  },
  {
    "type": "node",
    "id": 340474863,
    "lat": -22.9264932,
    "lon": -43.1764263,
    "tags": {
      "addr:city": "Rio de Janeiro",
      "addr:housenumber": "183",
      "addr:postcode": "22220-000",
      "addr:street": "Rua do Catete",
      "addr:suburb": "Catete",
      "name": "Sala do Artista Popular",
      "source": "survey",
      "tourism": "museum",
      "website": "http://www.cnfcp.gov.br/interna.php?ID_Secao=46"
    }
  },
  {
    "type": "node",
    "id": 342963099,
    "lat": -22.9023851,
    "lon": -43.1728791,
    "tags": {
      "alt_name": "Estátua equestre de D. João VI",
      "artist_name": "Carlos Ramos",
      "artwork_subject": "D. João VI",
      "artwork_type": "statue",
      "commemorates:wikidata": "Q676301",
      "historic": "memorial",
      "layer": "1",
      "material": "bronze",
      "name": "Dom João VI",
      "start_date": "1965-06-10",
      "tourism": "artwork",
      "wikidata": "Q67205212"
    }
  },
  {
    "type": "node",
    "id": 342963757,
    "lat": -22.9019832,
    "lon": -43.1729885,
    "tags": {
      "addr:city": "Rio de Janeiro",
      "addr:street": "Praça Quinze de Novembro",
      "addr:suburb": "Centro",
      "artist_name": "Valter Brito",
      "artwork_subject": "João Cândido Felisberto",
      "artwork_type": "statue",
      "commemorates:wikidata": "Q974355",
      "historic": "memorial",
      "layer": "1",
      "material": "bronze",
      "memorial": "statue",
      "name": "Monumento ao Almirante Negro",
      "start_date": "2008-11-20",
      "tourism": "artwork"
    }
  },
  {
    "type": "node",
    "id": 343999043,
    "lat": -22.9392818,
    "lon": -43.1892826,
    "tags": {
      "name": "Mirante da Cardoso Júnior",
      "tourism": "viewpoint"
    }
  },
  {
    "type": "node",
    "id": 344022191,
    "lat": -22.9536014,
    "lon": -43.1970521,
    "tags": {
      "artwork_type": "sculpture",
      "classification": "escultura",
      "heritage": "8",
      "heritage:operator": "IRPH",
      "heritage:ref": "Decreto n° 19.011 de 5/10/2000",
      "historic": "memorial",
      "inscription_date": "2000",
      "name": "Harmonia",
      "status": "definitivo",
      "tourism": "artwork"
    }
  },
  {
    "type": "node",
    "id": 344374584,
    "lat": -22.9395366,
    "lon": -43.2012982,
    "tags": {
      "created_by": "Potlatch 0.10f",
      "historic": "monument"
    }
  },
  {
    "type": "node",
    "id": 365737686,
    "lat": -22.9619478,
    "lon": -43.1652153,
    "tags": {
      "created_by": "Potlatch 0.10f",
      "historic": "monument",
      "name": "Monumento Almirante Júlio Cesar de Noronha"
    }
  },
  {
    "type": "node",
    "id": 386279909,
    "lat": -22.7545154,
    "lon": -43.1123583,
    "tags": {
      "alt_name": "Morro de São Roque",
      "ele": "24",
      "name": "Pedra da Moreninha",
      "natural": "peak",
      "source": "IPP",
      "tourism": "viewpoint",
      "wikidata": "Q22068997"
    }
  },
  {
    "type": "node",
    "id": 412310724,
    "lat": -22.9869257,
    "lon": -43.1899271,
    "tags": {
      "addr:city": "Rio de Janeiro",
      "addr:country": "BR",
      "addr:housenumber": "30",
      "addr:state": "RJ",
      "addr:street": "Rua Francisco Otaviano",
      "name": "Copacabana Praia Hotel",
      "stars": "4",
      "tourism": "hotel",
      "url": "http://www.copacabanapraiahotel.com.br/"
    }
  },
  {
    "type": "node",
    "id": 415826511,
    "lat": -22.9538097,
    "lon": -43.1703157,
    "tags": {
      "addr:city": "Rio de Janeiro",
      "addr:housenumber": "404",
      "addr:postcode": "22290-240",
      "addr:street": "Avenida Pasteur",
      "addr:suburb": "Urca",
      "barrier": "gate",
      "old_name": "Palácio dos Estados;Serviço Geológico;DNPM",
      "source": "survey",
      "tourism": "museum",
      "url": "http://www.cprm.gov.br/publique/cgi/cgilua.exe/sys/start.htm?infoid=341&sid=19"
    }
  },
  {
    "type": "node",
    "id": 416166018,
    "lat": -22.9478542,
    "lon": -43.1825879,
    "tags": {
      "historic": "memorial",
      "memorial": "bust",
      "name": "Manoel Thomaz de Carvalho Britto"
    }
  },
  {
    "type": "node",
    "id": 416979537,
    "lat": -22.9497179,
    "lon": -43.1825019,
    "tags": {
      "addr:housenumber": "462",
      "addr:street": "Rua Praia de Botafogo",
      "addr:unit": "7",
      "name": "Hostel Sun Rio",
      "tourism": "hostel",
      "website": "http://www.sunriohostel.com.br/"
    }
  },
  {
    "type": "node",
    "id": 422077020,
    "lat": -22.9261177,
    "lon": -43.1791104,
    "tags": {
      "addr:city": "Rio de Janeiro",
      "addr:country": "BR",
      "addr:housenumber": "183",
      "addr:postcode": "22221-000",
      "addr:street": "Rua Silveira Martins",
      "name": "Hostel Flamengo",
      "tourism": "hostel",
      "url": "http://www.hostelflamengo.com.br/"
    }
  },
  {
    "type": "node",
    "id": 428074256,
    "lat": -22.9300680,
    "lon": -43.1762202,
    "tags": {
      "addr:city": "Rio de Janeiro",
      "addr:housenumber": "63",
      "addr:postcode": "22220-040",
      "addr:street": "Rua Dois de Dezembro",
      "addr:suburb": "Catete",
      "name": "Oi Futuro",
      "phone": "+55-21-31313060",
      "tourism": "museum",
      "website": "https://www.oifuturo.org.br/"
    }
  },
  {
    "type": "node",
    "id": 430964804,
    "lat": -22.9134346,
    "lon": -43.2278305,
    "tags": {
      "historic": "monument",
      "name": "Estátua do Bellini"
    }
  },
  {
    "type": "node",
    "id": 431013589,
    "lat": -22.9271554,
    "lon": -43.1761669,
    "tags": {
      "addr:city": "Rio de Janeiro",
      "addr:country": "BR",
      "addr:housenumber": "81",
      "addr:postcode": "22210-040",
      "addr:street": "Rua Ferreira Viana",
      "addr:suburb": "Catete",
      "building": "hotel",
      "building:levels": "10",
      "name": "Windsor Florida Hotel",
      "phone": "+55-21-21956800",
      "source": "survey",
      "tourism": "hotel",
      "url": "http://www.windsorhoteis.com.br/pt-br/loca.asp?hid=26"
    }
  },
  {
    "type": "node",
    "id": 431750137,
    "lat": -22.9224416,
    "lon": -43.1773063,
    "tags": {
      "name": "Hospedaria Glória",
      "tourism": "hostel"
    }
  },
  {
    "type": "node",
    "id": 431750143,
    "lat": -22.9225252,
    "lon": -43.1773209,
    "tags": {
      "name": "Hotel Oásis do Catete",
      "stars": "1",
      "tourism": "hotel"
    }
  },
  {
    "type": "node",
    "id": 450799276,
    "lat": -22.9106615,
    "lon": -43.1872932,
    "tags": {
      "addr:city": "Rio de Janeiro",
      "addr:housenumber": "6",
      "addr:postcode": "20230-180",
      "addr:street": "Rua Carlos de Carvalho",
      "addr:suburb": "Cento",
      "name": "Hotel Galícia",
      "phone": "+55212221-0211",
      "tourism": "hotel",
      "website": "https://www.hotelgalicia.com.br/"
    }
  },
  {
    "type": "node",
    "id": 450867146,
    "lat": -22.9514254,
    "lon": -43.1783925,
    "tags": {
      "name": "Mirante do Pasmado",
      "tourism": "viewpoint"
    }
  },
  {
    "type": "node",
    "id": 452657821,
    "lat": -22.9273152,
    "lon": -43.1768644,
    "tags": {
      "addr:city": "Rio de Janeiro",
      "addr:housenumber": "186",
      "addr:postcode": "22220-000",
      "addr:street": "Rua do Catete",
      "addr:suburb": "Catete",
      "name": "Riale Imperial Flamengo",
      "tourism": "hotel"
    }
  },
  {
    "type": "node",
    "id": 452657840,
    "lat": -22.9264561,
    "lon": -43.1767750,
    "tags": {
      "addr:city": "Rio de Janeiro",
      "addr:housenumber": "172",
      "addr:postcode": "22220-000",
      "addr:street": "Rua do Catete",
      "addr:suburb": "Catete",
      "name": "Vitória",
      "tourism": "hotel"
    }
  },
  {
    "type": "node",
    "id": 456173487,
    "lat": -22.9173820,
    "lon": -43.1840054,
    "tags": {
      "board_type": "history",
      "information": "board",
      "tourism": "information"
    }
  },
  {
    "type": "node",
    "id": 456173489,
    "lat": -22.9176359,
    "lon": -43.1823279,
    "tags": {
      "board_type": "history",
      "information": "board",
      "tourism": "information"
    }
  },
  {
    "type": "node",
    "id": 459407632,
    "lat": -22.8156108,
    "lon": -43.2218055,
    "tags": {
      "historic": "monument",
      "name": "Homenagem ao Aviador"
    }
  },
  {
    "type": "node",
    "id": 461805320,
    "lat": -22.9330076,
    "lon": -43.1845005,
    "tags": {
      "description": "A sculpture of the S.64 flies above a stature of Carlo Del Prete as he stands before a plaque detailing the record flight.",
      "historic": "monument",
      "name": "Carlo Del Prete memorial",
      "source": "survey"
    }
  },
  {
    "type": "node",
    "id": 464769375,
    "lat": -22.8221273,
    "lon": -43.1888289,
    "tags": {
      "tourism": "viewpoint"
    }
  },
  {
    "type": "node",
    "id": 470797806,
    "lat": -22.5105347,
    "lon": -43.1861417,
    "tags": {
      "denomination": "catholic",
      "name": "Trono de Fátima",
      "religion": "christian",
      "tourism": "attraction"
    }
  },
  {
    "type": "node",
    "id": 479091125,
    "lat": -22.8798828,
    "lon": -43.3547239,
    "tags": {
      "name": "Motel Emoção",
      "tourism": "hotel"
    }
  },
  {
    "type": "node",
    "id": 481595601,
    "lat": -22.9040472,
    "lon": -43.1748287,
    "tags": {
      "artist_name": "Franz Weissmann",
      "artwork_subject": "abstract",
      "artwork_type": "sculpture",
      "fixme": "A escultura parece ter sido removida ou realocada para outro lugar entre 2022 e 2023.",
      "material": "weathering_steel",
      "name": "Terra",
      "start_date": "1984-01",
      "tourism": "artwork"
    }
  },
  {
    "type": "node",
    "id": 502863752,
    "lat": -22.9010321,
    "lon": -43.1795544,
    "tags": {
      "name": "Guanabara Palace Hotel",
      "tourism": "hotel"
    }
  },
  {
    "type": "node",
    "id": 506239957,
    "lat": -22.9042048,
    "lon": -43.1743466,
    "tags": {
      "artist_name": "Francisco Andrade",
      "artwork_type": "statue",
      "commemorates:wikidata": "Q527112",
      "historic": "memorial",
      "material": "bronze",
      "memorial": "statue",
      "name": "Tiradentes",
      "start_date": "1926-05",
      "tourism": "artwork"
    }
  },
  {
    "type": "node",
    "id": 507684840,
    "lat": -22.9252036,
    "lon": -43.1732739,
    "tags": {
      "addr:city": "Rio de Janeiro",
      "addr:country": "BR",
      "addr:housenumber": "20",
      "addr:postcode": "22210-030",
      "addr:street": "Praia do Flamengo",
      "name": "Hotel Novo Mundo",
      "phone": "+55-21-21057000",
      "source": "survey",
      "tourism": "hotel",
      "url": "http://www.hotelnovomundo-rio.com.br/"
    }
  },
  {
    "type": "node",
    "id": 512781933,
    "lat": -22.9065334,
    "lon": -43.1773367,
    "tags": {
      "tourism": "information"
    }
  },
  {
    "type": "node",
    "id": 512847984,
    "lat": -22.9142993,
    "lon": -43.1826263,
    "tags": {
      "amenity": "love_hotel",
      "name": "Hotel La Costa",
      "tourism": "hotel",
      "type": "love_hotel"
    }
  },
  {
    "type": "node",
    "id": 512852947,
    "lat": -22.9220847,
    "lon": -43.1765722,
    "tags": {
      "addr:housenumber": "63",
      "addr:street": "Rua do Catete",
      "amenity": "love_hotel",
      "name": "Love Time Hotel",
      "phone": "+55-21-25581911",
      "tourism": "hotel",
      "type": "love_hotel",
      "url": "http://www.lovetimehotel.com.br/"
    }
  },
  {
    "type": "node",
    "id": 512854718,
    "lat": -22.9948706,
    "lon": -43.2349661,
    "tags": {
      "addr:housenumber": "218",
      "addr:street": "Avenida Niemeyer",
      "amenity": "love_hotel",
      "name": "Hotel Shalimar",
      "phone": "+55-21-33223392",
      "tourism": "hotel",
      "type": "love_hotel",
      "url": "http://www.hotelshalimar.com.br/"
    }
  },
  {
    "type": "node",
    "id": 512858216,
    "lat": -22.9948114,
    "lon": -43.2348320,
    "tags": {
      "addr:housenumber": "214",
      "addr:street": "Avenida Niemeyer",
      "amenity": "love_hotel",
      "name": "Motel Sinless",
      "phone": "+55-21-25129913",
      "tourism": "hotel",
      "type": "love_hotel",
      "url": "http://www.sinless.com.br/"
    }
  },
  {
    "type": "node",
    "id": 512860156,
    "lat": -22.9283620,
    "lon": -43.1747683,
    "tags": {
      "addr:city": "Rio de Janeiro",
      "addr:country": "BR",
      "addr:housenumber": "19",
      "addr:postcode": "22210-050",
      "addr:street": "Rua Correa Dutra",
      "addr:suburb": "Flamengo",
      "amenity": "love_hotel",
      "name": "Elegance",
      "phone": "+55-21-32359000",
      "source": "survey",
      "tourism": "hotel",
      "type": "love_hotel",
      "url": "http://www.elegancehotel.com.br/"
    }
  },
  {
    "type": "node",
    "id": 512865324,
    "lat": -22.9930668,
    "lon": -43.2558231,
    "tags": {
      "addr:housenumber": "674",
      "addr:street": "Estrada da Gávea",
      "amenity": "love_hotel",
      "fixme": "We received a report that this location is closed or har wrong location, can someone on the ground verify?",
      "name": "Escort Motel",
      "phone": "+55-21-33221400",
      "tourism": "hotel",
      "type": "love_hotel",
      "url": "http://www.escortmotel.com.br/"
    }
  },
  {
    "type": "node",
    "id": 512867289,
    "lat": -22.9947421,
    "lon": -43.2347354,
    "tags": {
      "addr:housenumber": "210",
      "addr:street": "Avenida Niemeyer",
      "amenity": "love_hotel",
      "name": "Nosso Hotel",
      "phone": "+55-21-22743247",
      "tourism": "hotel",
      "type": "love_hotel",
      "url": "http://www.nossohotel.com.br/"
    }
  },
  {
    "type": "node",
    "id": 512869193,
    "lat": -22.9208354,
    "lon": -43.1806023,
    "tags": {
      "addr:housenumber": "521",
      "addr:street": "Rua Cândido Mendes",
      "amenity": "love_hotel",
      "name": "Challon Motel",
      "phone": "+55-21-22428826",
      "tourism": "hotel",
      "type": "love_hotel",
      "url": "http://www.challonmotel.com.br/"
    }
  },
  {
    "type": "node",
    "id": 512871642,
    "lat": -22.9175068,
    "lon": -43.1773673,
    "tags": {
      "addr:housenumber": "46",
      "addr:street": "Rua da Glória",
      "amenity": "love_hotel",
      "name": "Diamond Hotel",
      "phone": "+55-21-22536262",
      "tourism": "hotel",
      "type": "love_hotel",
      "url": "http://www.diamondhotel.com.br"
    }
  },
  {
    "type": "node",
    "id": 512873877,
    "lat": -22.9328109,
    "lon": -43.1766602,
    "tags": {
      "addr:housenumber": "36",
      "addr:street": "Rua Barão do Flamengo",
      "amenity": "love_hotel",
      "check_date": "2025-01-10",
      "name": "Hotel Barão do Flamengo",
      "phone": "+55-21-34790700",
      "tourism": "hotel",
      "type": "love_hotel",
      "url": "http://www.hotelbaraodoflamengo.com.br/"
    }
  },
  {
    "type": "node",
    "id": 512887703,
    "lat": -22.9308802,
    "lon": -43.1804064,
    "tags": {
      "addr:housenumber": "22",
      "addr:street": "Rua Gago Coutinho",
      "amenity": "love_hotel",
      "name": "Hotel Serrano",
      "phone": "+55-21-22051846",
      "tourism": "hotel",
      "type": "love_hotel"
    }
  },
  {
    "type": "node",
    "id": 512889445,
    "lat": -22.9244917,
    "lon": -43.1785727,
    "tags": {
      "addr:housenumber": "173",
      "addr:street": "Rua Pedro Américo",
      "amenity": "love_hotel",
      "name": "Hotel Pedro Américo",
      "phone": "+55-21-22052019",
      "tourism": "hotel",
      "type": "love_hotel"
    }
  },
  {
    "type": "node",
    "id": 523401044,
    "lat": -22.9378346,
    "lon": -43.1730825,
    "tags": {
      "historic": "monument",
      "name": "Cuauhtémoc"
    }
  },
  {
    "type": "node",
    "id": 527082940,
    "lat": -22.9253222,
    "lon": -43.1736816,
    "tags": {
      "addr:city": "Rio de Janeiro",
      "addr:country": "BR",
      "addr:housenumber": "20",
      "addr:postcode": "22221-000",
      "addr:street": "Rua Silveira Martins",
      "name": "Hotel Inglês",
      "phone": "+55-21-25583052",
      "source": "survey",
      "stars": "2",
      "tourism": "hotel",
      "website": "http://www.hotelingles.com.br/"
    }
  },
  {
    "type": "node",
    "id": 527236759,
    "lat": -22.9538659,
    "lon": -43.1638267,
    "tags": {
      "historic": "wayside_shrine",
      "religion": "christian"
    }
  },
  {
    "type": "node",
    "id": 527537978,
    "lat": -22.9044703,
    "lon": -43.2287213,
    "tags": {
      "tourism": "information"
    }
  },
  {
    "type": "node",
    "id": 529741764,
    "lat": -22.9265779,
    "lon": -43.1763402,
    "tags": {
      "addr:city": "Rio de Janeiro",
      "addr:housenumber": "179",
      "addr:postcode": "22220-000",
      "addr:street": "Rua do Catete",
      "addr:suburb": "Catete",
      "name": "Museu de Folclore Edison Carneiro",
      "phone": "+55-21-22850441",
      "source": "survey",
      "tourism": "museum",
      "website": "http://www.cnfcp.gov.br/"
    }
  },
  {
    "type": "node",
    "id": 529748996,
    "lat": -22.9667761,
    "lon": -43.1862122,
    "tags": {
      "addr:city": "Rio de Janeiro",
      "addr:country": "BR",
      "addr:housenumber": "90",
      "addr:street": "Rua Siqueira Campos",
      "name": "Atlântico Copacabana",
      "phone": "+55-21-25480011",
      "tourism": "hotel",
      "url": "http://www.atlanticocopacabana.com.br/"
    }
  },
  {
    "type": "node",
    "id": 529749005,
    "lat": -22.9665351,
    "lon": -43.1829688,
    "tags": {
      "addr:housenumber": "305",
      "addr:street": "Rua República do Peru",
      "name": "Apa Hotel",
      "phone": "+55-21-22563628",
      "stars": "3",
      "tourism": "hotel",
      "url": "http://www.apahotel.com.br/"
    }
  },
  {
    "type": "node",
    "id": 529749011,
    "lat": -22.9662289,
    "lon": -43.1806192,
    "tags": {
      "addr:housenumber": "51",
      "addr:street": "Rua General Barbosa Lima",
      "name": "Yellow Mellow",
      "phone": "+55-21-25471993",
      "tourism": "hostel",
      "url": "http://www.mellowyellow.com.br/"
    }
  },
  {
    "type": "node",
    "id": 529749016,
    "lat": -22.9632989,
    "lon": -43.1762731,
    "tags": {
      "name": "Ibiza Copacabana Hotel",
      "tourism": "hotel"
    }
  },
  {
    "type": "node",
    "id": 529749017,
    "lat": -22.9640650,
    "lon": -43.1784469,
    "tags": {
      "addr:city": "Rio de Janeiro",
      "addr:housenumber": "111",
      "addr:street": "Rua Barata Ribeiro",
      "addr:suburb": "Copacabana",
      "name": "Che Lagarto Hostel",
      "phone": "+55-21-32090348",
      "tourism": "hostel",
      "url": "http://www.chelagarto.com/",
      "website": "https://www.chelagarto.com/index.php/pt/component/chelagarto/hostels/24-hostel-copacabana.html"
    }
  },
  {
    "type": "node",
    "id": 529749019,
    "lat": -22.9663889,
    "lon": -43.1770799,
    "tags": {
      "addr:housenumber": "1500",
      "addr:street": "Avenida Atlântica",
      "name": "Hotel Porto Bay Rio Internacional",
      "phone": "+55-21-25468000",
      "tourism": "hotel",
      "url": "http://www.portobay.com/",
      "wheelchair": "yes"
    }
  },
  {
    "type": "node",
    "id": 529749023,
    "lat": -22.9616093,
    "lon": -43.1748641,
    "tags": {
      "addr:city": "Rio de Janeiro",
      "addr:country": "BR",
      "addr:housenumber": "370",
      "addr:street": "Avenida Princesa Isabel",
      "brand": "Best Western",
      "brand:wikidata": "Q830334",
      "name": "Best Western Augusto's Rio Copa Hotel",
      "phone": "+55-21-25469500",
      "source": "Bing",
      "tourism": "hotel",
      "website": "https://www.bestwestern.com.br/"
    }
  },
  {
    "type": "node",
    "id": 529749029,
    "lat": -22.9631073,
    "lon": -43.1696988,
    "tags": {
      "addr:city": "Rio de Janeiro",
      "addr:country": "BR",
      "addr:housenumber": "656",
      "addr:street": "Avenida Atlântica",
      "name": "Windsor Hotel Leme",
      "phone": "+55-21-21225900",
      "tourism": "hotel"
    }
  },
  {
    "type": "node",
    "id": 529749030,
    "lat": -22.9640820,
    "lon": -43.1732446,
    "tags": {
      "addr:city": "Rio de Janeiro",
      "addr:country": "BR",
      "addr:housenumber": "854",
      "addr:street": "Rua Gustavo Sampaio",
      "name": "Acapulco Copacabana Hotel",
      "tourism": "hotel",
      "website": "http://www.acapulcohotel.com.br/"
    }
  },
  {
    "type": "node",
    "id": 529749032,
    "lat": -22.9607149,
    "lon": -43.1749285,
    "tags": {
      "name": "Real Residence Hotel",
      "tourism": "hotel"
    }
  },
  {
    "type": "node",
    "id": 529749037,
    "lat": -22.9620932,
    "lon": -43.1685341,
    "tags": {
      "addr:city": "Rio de Janeiro",
      "addr:country": "BR",
      "addr:housenumber": "320",
      "addr:street": "Rua Gustavo Sampaio",
      "bar": "yes",
      "brand": "Novotel",
      "brand:wikidata": "Q420545",
      "internet_access": "wlan",
      "name": "Novotel Leme",
      "phone": "+55-21-35455300",
      "toilets:wheelchair": "yes",
      "tourism": "hotel",
      "website": "https://all.accor.com/hotel/B205/index.en.shtml",
      "wheelchair": "yes"
    }
  },
  {
    "type": "node",
    "id": 535870384,
    "lat": -22.9627949,
    "lon": -43.1809701,
    "tags": {
      "addr:city": "Rio de Janeiro",
      "addr:country": "BR",
      "addr:housenumber": "12",
      "addr:street": "Travessa Guimarães Natal",
      "name": "Cabana Copa",
      "phone": "+55-21-39889912",
      "tourism": "hostel",
      "url": "http://www.cabanacopa.com.br/"
    }
  },
  {
    "type": "node",
    "id": 535871274,
    "lat": -22.9191926,
    "lon": -43.1796947,
    "tags": {
      "addr:housenumber": "19",
      "addr:street": "Rua Hermenegildo de Barros",
      "name": "Cidade Maravilhosa Hostel",
      "phone": "+55-21-39703926",
      "tourism": "hostel",
      "url": "http://www.cidademaravilhosahostel.com.br/",
      "website": "http://cidademaravilhosahostel.com.br/"
    }
  },
  {
    "type": "node",
    "id": 535873883,
    "lat": -22.9851511,
    "lon": -43.2024369,
    "tags": {
      "addr:housenumber": "594",
      "addr:street": "Rua Prudente de Moraes",
      "name": "The Mango Tree",
      "phone": "+55-21-22879255",
      "tourism": "hostel",
      "url": "http://www.mangotreehostel.com/"
    }
  },
  {
    "type": "node",
    "id": 535879680,
    "lat": -22.9852030,
    "lon": -43.2203478,
    "tags": {
      "addr:housenumber": "56",
      "addr:street": "Rua Cupertino Durão",
      "name": "Lemon Spirit",
      "phone": "+55-21-22941853",
      "tourism": "hostel",
      "url": "http://www.lemonspirit.com/"
    }
  },
  {
    "type": "node",
    "id": 549225617,
    "lat": -22.9364993,
    "lon": -43.2040430,
    "tags": {
      "tourism": "viewpoint"
    }
  },
  {
    "type": "node",
    "id": 557558198,
    "lat": -22.9859438,
    "lon": -43.1893310,
    "tags": {
      "brand": "Fairmont",
      "name": "Fairmont Rio de Janeiro Copacabana",
      "tourism": "hotel"
    }
  },
  {
    "type": "node",
    "id": 557558222,
    "lat": -22.9857789,
    "lon": -43.1886840,
    "tags": {
      "commemorates:wikidata": "Q727090",
      "historic": "monument",
      "monument": "statue",
      "name": "Estátua de Dorival Caymmi"
    }
  },
  {
    "type": "node",
    "id": 557558281,
    "lat": -22.9867260,
    "lon": -43.1921806,
    "tags": {
      "name": "Atlantis Hotel Copacabana",
      "tourism": "hotel"
    }
  },
  {
    "type": "node",
    "id": 557558361,
    "lat": -22.9759282,
    "lon": -43.1916779,
    "tags": {
      "addr:city": "Rio de Janeiro",
      "addr:housenumber": "119",
      "addr:postcode": "22061-020",
      "addr:street": "Rua Bolívar",
      "name": "Augusto's Copacabana",
      "operator": "Augusto´s Hotéis",
      "phone": "+55 21 2547 1800",
      "smoking": "outside",
      "tourism": "hotel"
    }
  },
  {
    "type": "node",
    "id": 557558551,
    "lat": -22.9707403,
    "lon": -43.1890821,
    "tags": {
      "name": "Bandeirantes",
      "tourism": "hotel"
    }
  },
  {
    "type": "node",
    "id": 557558655,
    "lat": -22.9714357,
    "lon": -43.1855373,
    "tags": {
      "name": "Toledo",
      "tourism": "hotel"
    }
  },
  {
    "type": "node",
    "id": 559645116,
    "lat": -22.9128806,
    "lon": -43.1838607,
    "tags": {
      "addr:city": "Rio de Janeiro",
      "addr:housenumber": "117",
      "addr:postcode": "20230-150",
      "addr:street": "Avenida Mem de Sá",
      "addr:suburb": "Centro",
      "name": "Dora Residence",
      "tourism": "hotel"
    }
  },
  {
    "type": "node",
    "id": 559645157,
    "lat": -22.9091429,
    "lon": -43.1868551,
    "tags": {
      "addr:city": "Rio de Janeiro",
      "addr:housenumber": "45",
      "addr:street": "Praça da República",
      "addr:suburb": "Centro",
      "name": "Museu do Corpo de Bombeiros",
      "opening_hours": "Tu-Sa 09:00-17:00",
      "reservation": "no",
      "tourism": "museum",
      "website": "http://www.museu.cbmerj.rj.gov.br/",
      "wikidata": "Q56694555"
    }
  },
  {
    "type": "node",
    "id": 559645225,
    "lat": -22.9198325,
    "lon": -43.1790216,
    "tags": {
      "addr:city": "Rio de Janeiro",
      "addr:housenumber": "201",
      "addr:postcode": "20241-220",
      "addr:street": "Rua Cândido Mendes",
      "name": "Hotel Monte Castelo",
      "phone": "(21) 2233-0085",
      "tourism": "hotel",
      "website": "https://www.hotelmontecastelo.com.br/"
    }
  },
  {
    "type": "node",
    "id": 559645234,
    "lat": -22.9172701,
    "lon": -43.1809843,
    "tags": {
      "name": "Vovó House Hotel Geriátrico",
      "tourism": "hotel"
    }
  },
  {
    "type": "node",
    "id": 559645237,
    "lat": -22.9162329,
    "lon": -43.1835168,
    "tags": {
      "name": "Guesthouse Casa Amarela",
      "tourism": "hostel"
    }
  },
  {
    "type": "node",
    "id": 566811638,
    "lat": -22.9145324,
    "lon": -43.1779836,
    "tags": {
      "tourism": "information"
    }
  },
  {
    "type": "node",
    "id": 567102744,
    "lat": -22.8711155,
    "lon": -43.1291032,
    "tags": {
      "historic": "wreck",
      "seamark:type": "wreck",
      "seamark:wreck:category": "hull_showing",
      "wreck:visible_at_high_tide": "yes",
      "wreck:visible_at_low_tide": "yes"
    }
  },
  {
    "type": "node",
    "id": 592598087,
    "lat": -22.9113066,
    "lon": -43.1765566,
    "tags": {
      "addr:city": "Rio de Janeiro",
      "addr:country": "BR",
      "addr:housenumber": "24",
      "addr:postcode": "20031-200",
      "addr:street": "Rua Senador Dantas",
      "created_by": "iLOE 1.8",
      "internet_access": "wlan",
      "name": "Hotéis OK",
      "opening_hours": "24/7",
      "tourism": "hotel"
    }
  },
  {
    "type": "node",
    "id": 592598131,
    "lat": -22.9116545,
    "lon": -43.1764953,
    "tags": {
      "addr:city": "Rio de Janeiro",
      "addr:country": "BR",
      "addr:housenumber": "14",
      "addr:street": "Rua Senador Dantas",
      "name": "Windsor Astúrias",
      "phone": "+55-21-21951500",
      "tourism": "hotel",
      "website": "https://www.windsorhoteis.com.br/pt-br/loca.asp?hid=59"
    }
  },
  {
    "type": "node",
    "id": 605112810,
    "lat": -22.7564871,
    "lon": -43.1076801,
    "tags": {
      "historic": "monument",
      "name": "Estátua de Carlos Gomes",
      "source": "survey"
    }
  },
  {
    "type": "node",
    "id": 605112818,
    "lat": -22.7584541,
    "lon": -43.1085003,
    "tags": {
      "genus": "Adansonia",
      "leaf_cycle": "deciduous",
      "leaf_type": "broadleaved",
      "name": "Baobá Maria Gorda",
      "natural": "tree",
      "object:city": "Paquetá",
      "object:street": "Praia dos Tamoios",
      "source": "survey",
      "tourism": "attraction"
    }
  },
  {
    "type": "node",
    "id": 605112829,
    "lat": -22.7591107,
    "lon": -43.1081595,
    "tags": {
      "historic": "cannon",
      "source": "survey"
    }
  },
  {
    "type": "node",
    "id": 608717194,
    "lat": -22.7624825,
    "lon": -43.1072082,
    "tags": {
      "artwork_type": "bust",
      "material": "metal",
      "source": "survey",
      "tourism": "artwork"
    }
  },
  {
    "type": "node",
    "id": 614482632,
    "lat": -22.9568275,
    "lon": -43.2780827,
    "tags": {
      "amenity": "place_of_worship",
      "denomination": "catholic",
      "name": "Capela Mayrink",
      "name:en": "Mayrink Chapel",
      "religion": "christian",
      "tourism": "attraction",
      "wikidata": "Q64563604",
      "wikimedia_commons": "Category:Capela Mayrink"
    }
  },
  {
    "type": "node",
    "id": 614482636,
    "lat": -22.9539401,
    "lon": -43.2303306,
    "tags": {
      "tourism": "viewpoint"
    }
  },
  {
    "type": "node",
    "id": 614496054,
    "lat": -22.9032750,
    "lon": -43.1736204,
    "tags": {
      "name": "Paço Imperial",
      "name:es": "Palacio Imperial",
      "source": "GPS; survey",
      "tourism": "information"
    }
  },
  {
    "type": "node",
    "id": 616601994,
    "lat": -22.9038617,
    "lon": -43.4904837,
    "tags": {
      "historic": "ruins",
      "name": "Aqueduto de Santíssimo"
    }
  },
  {
    "type": "node",
    "id": 621484477,
    "lat": -22.8185928,
    "lon": -43.2007251,
    "tags": {
      "addr:housenumber": "68",
      "addr:street": "Praça Jerusalém",
      "name": "Joalo's",
      "tourism": "hotel"
    }
  },
  {
    "type": "node",
    "id": 621484491,
    "lat": -22.8203808,
    "lon": -43.1906309,
    "tags": {
      "name": "Sunshine",
      "note": "Hotel fechado definitivamente",
      "tourism": "hotel"
    }
  },
  {
    "type": "node",
    "id": 628127676,
    "lat": -22.8149503,
    "lon": -43.2095857,
    "tags": {
      "tourism": "viewpoint"
    }
  },
  {
    "type": "node",
    "id": 628127678,
    "lat": -22.8150690,
    "lon": -43.2101651,
    "tags": {
      "tourism": "viewpoint"
    }
  },
  {
    "type": "node",
    "id": 628127681,
    "lat": -22.8193578,
    "lon": -43.2044394,
    "tags": {
      "tourism": "viewpoint"
    }
  },
  {
    "type": "node",
    "id": 628127683,
    "lat": -22.8190376,
    "lon": -43.2057183,
    "tags": {
      "tourism": "viewpoint"
    }
  },
  {
    "type": "node",
    "id": 632831606,
    "lat": -22.8251205,
    "lon": -43.1695464,
    "tags": {
      "amenity": "fountain",
      "historic": "monument"
    }
  },
  {
    "type": "node",
    "id": 633041110,
    "lat": -22.8158685,
    "lon": -43.2119058,
    "tags": {
      "name": "Quebra Coco",
      "tourism": "picnic_site"
    }
  },
  {
    "type": "node",
    "id": 633041111,
    "lat": -22.8155261,
    "lon": -43.2111985,
    "tags": {
      "name": "Quebra Coco",
      "tourism": "picnic_site"
    }
  },
  {
    "type": "node",
    "id": 633041112,
    "lat": -22.8151368,
    "lon": -43.2103945,
    "tags": {
      "name": "Quebra Coco",
      "tourism": "picnic_site"
    }
  },
  {
    "type": "node",
    "id": 635991438,
    "lat": -22.9288574,
    "lon": -43.1779283,
    "tags": {
      "addr:housenumber": "29",
      "addr:street": "Rua Artur Bernardes",
      "name": "Hotel Rio Lisboa",
      "phone": "+55-21-22659599",
      "source": "survey",
      "tourism": "hotel"
    }
  },
  {
    "type": "node",
    "id": 635991451,
    "lat": -22.9287586,
    "lon": -43.1784111,
    "tags": {
      "addr:housenumber": "39",
      "addr:street": "Rua Artur Bernardes",
      "breakfast": "yes",
      "internet_access": "wlan;terminal",
      "internet_access:fee": "customers",
      "name": "Petit Rio Hotel",
      "phone": "+55-21-22257767",
      "source": "survey",
      "tourism": "hotel",
      "website": "https://petitriohotel.com.br/"
    }
  },
  {
    "type": "node",
    "id": 677594842,
    "lat": -22.9138198,
    "lon": -43.1779621,
    "tags": {
      "hiking": "yes",
      "information": "guidepost",
      "name": "Rio a pé",
      "source": "survey",
      "tourism": "information"
    }
  },
  {
    "type": "node",
    "id": 677594843,
    "lat": -22.9142406,
    "lon": -43.1780405,
    "tags": {
      "artist_name": "Rodolfo Bernadelli",
      "artwork_type": "sculpture",
      "heritage": "4",
      "heritage:operator": "inepac",
      "highway": "street_lamp",
      "material": "bronze",
      "name": "Lampadário Monumental da Lapa",
      "start_date": "1906-11",
      "tourism": "artwork"
    }
  },
  {
    "type": "node",
    "id": 698142228,
    "lat": -22.9540856,
    "lon": -43.1695008,
    "tags": {
      "historic": "monument",
      "source": "survey"
    }
  },
  {
    "type": "node",
    "id": 704970808,
    "lat": -22.9240870,
    "lon": -43.1765891,
    "tags": {
      "addr:city": "Rio de Janeiro",
      "addr:country": "BR",
      "addr:housenumber": "135",
      "addr:postcode": "22221-000",
      "addr:street": "Rua Silveira Martins",
      "name": "Art Hostel Rio",
      "phone": "+55-21-22051983",
      "source": "survey",
      "tourism": "hostel",
      "website": "http://www.arthostelrio.com/"
    }
  },
  {
    "type": "node",
    "id": 704970846,
    "lat": -22.9260040,
    "lon": -43.1777746,
    "tags": {
      "addr:city": "Rio de Janeiro",
      "addr:country": "BR",
      "addr:housenumber": "139",
      "addr:postcode": "22221-000",
      "addr:street": "Rua Silveira Martins",
      "name": "Hostel República",
      "phone": "+55-21-25562315",
      "source": "survey",
      "tourism": "hostel",
      "website": "https://www.hostelrepublica.com.br/"
    }
  },
  {
    "type": "node",
    "id": 704978377,
    "lat": -22.9268437,
    "lon": -43.1758703,
    "tags": {
      "addr:city": "Rio de Janeiro",
      "addr:country": "BR",
      "addr:housenumber": "58",
      "addr:postcode": "22210-040",
      "addr:street": "Rua Ferreira Viana",
      "addr:suburb": "Catete",
      "name": "Ferreira Viana",
      "tourism": "hotel"
    }
  },
  {
    "type": "node",
    "id": 704978396,
    "lat": -22.9277035,
    "lon": -43.1745722,
    "tags": {
      "addr:city": "Rio de Janeiro",
      "addr:country": "BR",
      "addr:housenumber": "29",
      "addr:postcode": "22210-040",
      "addr:street": "Rua Ferreira Viana",
      "addr:suburb": "Catete",
      "email": "hotelregina@hotelregina.com.br",
      "name": "Regina",
      "phone": "+55-21-32899999",
      "source": "survey",
      "tourism": "hotel",
      "website": "http://www.hotelregina.com.br/"
    }
  },
  {
    "type": "node",
    "id": 704978397,
    "lat": -22.9274418,
    "lon": -43.1741429,
    "tags": {
      "addr:city": "Rio de Janeiro",
      "addr:country": "BR",
      "addr:housenumber": "20",
      "addr:postcode": "22210-040",
      "addr:street": "Rua Ferreira Viana",
      "addr:suburb": "Catete",
      "name": "Beija Flor",
      "phone": "+55-21-22852492",
      "source": "survey",
      "tourism": "hotel",
      "website": "http://www.hotelbeijaflor.com.br/"
    }
  },
  {
    "type": "node",
    "id": 704992216,
    "lat": -22.9280591,
    "lon": -43.1746870,
    "tags": {
      "addr:city": "Rio de Janeiro",
      "addr:country": "BR",
      "addr:housenumber": "22",
      "addr:postcode": "22210-050",
      "addr:street": "Rua Correa Dutra",
      "addr:suburb": "Catete",
      "name": "Caxambú",
      "phone": "+55-21-22659496",
      "source": "survey",
      "tourism": "hotel"
    }
  },
  {
    "type": "node",
    "id": 704992217,
    "lat": -22.9282864,
    "lon": -43.1751483,
    "tags": {
      "addr:city": "Rio de Janeiro",
      "addr:country": "BR",
      "addr:housenumber": "31",
      "addr:postcode": "22210-050",
      "addr:street": "Rua Correa Dutra",
      "check_date": "2024-10-12",
      "email": "contato@mengopalace.com.br",
      "name": "Mengo Palace",
      "phone": "+55-21-+55-21-32621616",
      "source": "survey",
      "tourism": "hotel",
      "url": "http://www.mengopalace.com/"
    }
  },
  {
    "type": "node",
    "id": 773833915,
    "lat": -22.9465487,
    "lon": -43.2929293,
    "tags": {
      "ele": "708",
      "information": "guidepost",
      "name": "Pico da Tijuca/Tijuca Mirim <> Archer/Cocanha",
      "tourism": "information"
    }
  },
  {
    "type": "node",
    "id": 773834276,
    "lat": -22.9424190,
    "lon": -43.2847289,
    "tags": {
      "information": "guidepost",
      "name": "Pico da Tijuca | Tijuca Mirim | Saida",
      "tourism": "information"
    }
  },
  {
    "type": "node",
    "id": 773834514,
    "lat": -22.9438076,
    "lon": -43.2862141,
    "tags": {
      "ele": "1021",
      "name": "Pico da Tijuca",
      "tourism": "viewpoint",
      "website": "http://www.parquedatijuca.com.br/verde/pt03.htm"
    }
  },
  {
    "type": "node",
    "id": 814301121,
    "lat": -23.0117278,
    "lon": -43.3170801,
    "tags": {
      "addr:housenumber": "150",
      "addr:street": "Praça São Perpétuo",
      "amenity": "love_hotel",
      "name": "Papillon",
      "phone": "+55-21-24942727",
      "tourism": "hotel",
      "website": "http://www.papillonmotel.com.br/"
    }
  },
  {
    "type": "node",
    "id": 815523496,
    "lat": -22.9352864,
    "lon": -43.2350077,
    "tags": {
      "historic": "yes",
      "name": "Represa do Rio Trapicheiros",
      "tourism": "attraction",
      "waterway": "weir"
    }
  },
  {
    "type": "node",
    "id": 815566819,
    "lat": -22.9229216,
    "lon": -43.2300856,
    "tags": {
      "name": "Hotel Tijuca",
      "tourism": "hotel"
    }
  },
  {
    "type": "node",
    "id": 819332299,
    "lat": -22.9252196,
    "lon": -43.2308274,
    "tags": {
      "name": "Éden Motel",
      "tourism": "hotel"
    }
  },
  {
    "type": "node",
    "id": 819646440,
    "lat": -22.9116781,
    "lon": -43.2133499,
    "tags": {
      "name": "Hotel Saionará",
      "tourism": "hotel"
    }
  },
  {
    "type": "node",
    "id": 819646538,
    "lat": -22.9126940,
    "lon": -43.2138045,
    "tags": {
      "name": "Hotel Málaga",
      "tourism": "hotel"
    }
  },
  {
    "type": "node",
    "id": 823950003,
    "lat": -22.8083675,
    "lon": -43.3235601,
    "tags": {
      "IPP:BAIRRO": "Jardim América",
      "IPP:CHAVE": "11870",
      "IPP:CODATIVIDA": "0",
      "IPP:CODBAIRRO": "049",
      "IPP:COD_INEP": "33070520",
      "IPP:COD_SMA": "011870",
      "IPP:CRE": "04",
      "IPP:DESIGNACAO": "0431025",
      "IPP:ENDNOVO": "http://webapp.sme.rio.rj.gov.br/jcartela/publico/pesquisa.do?idSetor=11870&cmd=load",
      "IPP:FLG_VALIDA": "S",
      "addr:street": "Rua Sebastian Bach",
      "amenity": "love_hotel",
      "name": "Escola Municipal Cônego Fernandes Pinheiro",
      "note": "Local sem número",
      "phone": "+55-21-33714765",
      "source": "IPP",
      "tourism": "motel"
    }
  },
  {
    "type": "node",
    "id": 823950061,
    "lat": -22.8376751,
    "lon": -43.3126794,
    "tags": {
      "IPP:BAIRRO": "Brás de Pina",
      "IPP:CHAVE": "11355",
      "IPP:CODATIVIDA": "0",
      "IPP:CODBAIRRO": "045",
      "IPP:COD_INEP": "33070113",
      "IPP:COD_SMA": "011355",
      "IPP:CRE": "04",
      "IPP:DESIGNACAO": "0411020",
      "IPP:ENDNOVO": "http://webapp.sme.rio.rj.gov.br/jcartela/publico/pesquisa.do?idSetor=11355&cmd=load",
      "IPP:FLG_VALIDA": "S",
      "IPP:OBS": "Bairro Vila da Penha",
      "addr:housenumber": "1614",
      "addr:street": "Avenida Brás de Pina",
      "amenity": "school",
      "brand": "Prefeitura do Rio de Janeiro",
      "historic": "yes",
      "name": "Escola Municipal Grécia",
      "note": "Bem Tombado Municipal",
      "operator": "Prefeitura do Rio de Janeiro",
      "operator:type": "government",
      "phone": "+55-21-33915972",
      "source": "IPP"
    }
  },
  {
    "type": "node",
    "id": 836915410,
    "lat": -22.9692298,
    "lon": -43.1901139,
    "tags": {
      "addr:city": "Rio de Janeiro",
      "addr:country": "BR",
      "addr:housenumber": "376",
      "addr:street": "Rua Tonelero",
      "name": "Rio Rockers",
      "phone": "+55-21-35112221",
      "tourism": "hostel",
      "website": "http://www.riorockers.com.br/"
    }
  },
  {
    "type": "node",
    "id": 836977642,
    "lat": -22.9338773,
    "lon": -43.1751550,
    "tags": {
      "addr:city": "Rio de Janeiro",
      "addr:country": "BR",
      "addr:housenumber": "23",
      "addr:postcode": "22210-080",
      "addr:street": "Rua Paissandu",
      "name": "Paysandú Hotel",
      "phone": "+55-21-25587270",
      "tourism": "hotel",
      "website": "http://www.paysanduhotel.com.br/"
    }
  },
  {
    "type": "node",
    "id": 857747397,
    "lat": -22.9740854,
    "lon": -43.1938803,
    "tags": {
      "addr:city": "Rio de Janeiro",
      "addr:country": "BR",
      "addr:housenumber": "38",
      "addr:street": "Travessa Santa Leocádia",
      "name": "Rio Backpackers",
      "phone": "+55-21-22363803",
      "tourism": "hostel",
      "website": "http://riobackpackers.com/"
    }
  },
  {
    "type": "node",
    "id": 878236649,
    "lat": -22.9311554,
    "lon": -43.1795822,
    "tags": {
      "coreogthere": "1",
      "tourism": "viewpoint"
    }
  },
  {
    "type": "node",
    "id": 885782000,
    "lat": -22.9659857,
    "lon": -43.1845857,
    "tags": {
      "addr:city": "Rio de Janeiro",
      "addr:country": "BR",
      "addr:housenumber": "154",
      "addr:street": "Rua Tonelero",
      "name": "Royalty Copacabana",
      "phone": "+55-21-25485699",
      "stars": "4",
      "tourism": "hotel",
      "website": "http://www.royaltycopacabana-hotel.com/"
    }
  },
  {
    "type": "node",
    "id": 885782008,
    "lat": -22.9630221,
    "lon": -43.1806912,
    "tags": {
      "addr:city": "Rio de Janeiro",
      "addr:country": "BR",
      "addr:housenumber": "6",
      "addr:street": "Travessa Guimarães Natal",
      "name": "King George",
      "phone": "+55-21-22797113",
      "tourism": "hostel"
    }
  },
  {
    "type": "node",
    "id": 892159613,
    "lat": -22.9689948,
    "lon": -43.1817135,
    "tags": {
      "addr:city": "Rio de Janeiro",
      "addr:country": "BR",
      "addr:housenumber": "2064",
      "addr:postcode": "22021-001",
      "addr:street": "Avenida Atlântica",
      "name": "Arena",
      "phone": "+55-21-30341501",
      "tourism": "hotel",
      "website": "https://www.arenahotel.com.br/"
    }
  },
  {
    "type": "node",
    "id": 892159651,
    "lat": -22.9662486,
    "lon": -43.1832370,
    "tags": {
      "addr:city": "Rio de Janeiro",
      "addr:country": "BR",
      "addr:housenumber": "345",
      "addr:street": "Rua República do Peru",
      "name": "Astoria Copacabana",
      "phone": "+55-21-25459090",
      "tourism": "hotel",
      "website": "http://www.astoriacopacabanahotel.com/"
    }
  },
  {
    "type": "node",
    "id": 892159791,
    "lat": -22.9697258,
    "lon": -43.1831190,
    "tags": {
      "addr:city": "Rio de Janeiro",
      "addr:country": "BR",
      "addr:housenumber": "17",
      "addr:postcode": "22040-020",
      "addr:street": "Rua Hilário de Gouveia",
      "name": "Oceano Copacabana",
      "phone": "+55-21-25484260",
      "stars": "4",
      "tourism": "hotel",
      "website": "http://www.oceanohotel.com.br/"
    }
  },
  {
    "type": "node",
    "id": 914639098,
    "lat": -22.9156626,
    "lon": -43.1872996,
    "tags": {
      "name": "São Jorge",
      "phone": "+55-21-22243516",
      "tourism": "hotel"
    }
  },
  {
    "type": "node",
    "id": 921294740,
    "lat": -22.9879365,
    "lon": -43.1937983,
    "tags": {
      "addr:city": "Rio de Janeiro",
      "addr:country": "BR",
      "addr:housenumber": "177",
      "addr:postcode": "22080-046",
      "addr:street": "Rua Francisco Otaviano",
      "addr:suburb": "Arpoador",
      "brand": "Hotel Arpoador",
      "description": "Located in Arpoador, the ARPOADOR is a lifestyle and wellness beach hotel that offers 49 rooms, many of which are sea facing. The gastronomy is signed by Chef Roberta Sudbrack and the architecture and interiores are by Bernardes Arquitetura.",
      "email": "reservas@hotelarpoador.com",
      "internet_access": "wlan",
      "name": "Hotel Arpoador",
      "operator": "Grupo Arpoador",
      "phone": "+55 21 3600 4000",
      "rooms": "49",
      "smoking": "outside",
      "stars": "4",
      "tourism": "hotel",
      "website": "https://www.hotelarpoador.com/",
      "wheelchair": "yes"
    }
  },
  {
    "type": "node",
    "id": 946673775,
    "lat": -22.9289213,
    "lon": -43.1756649,
    "tags": {
      "addr:city": "Rio de Janeiro",
      "addr:country": "BR",
      "addr:housenumber": "54",
      "addr:postcode": "22220-030",
      "addr:street": "Rua Buarque de Macedo",
      "addr:suburb": "Catete",
      "name": "Único",
      "phone": "+55-21-22059932;+55-21-22058149;+55-21-22058696",
      "tourism": "hotel",
      "website": "http://www.unicohotel.com.br/"
    }
  },
  {
    "type": "node",
    "id": 946673777,
    "lat": -22.9287830,
    "lon": -43.1760511,
    "tags": {
      "addr:city": "Rio de Janeiro",
      "addr:country": "BR",
      "addr:housenumber": "60",
      "addr:postcode": "22220-030",
      "addr:street": "Rua Buarque de Macedo",
      "addr:suburb": "Catete",
      "name": "Rondônia Palace",
      "phone": "+55-21-25560616",
      "tourism": "hotel",
      "website": "http://www.hotelrondonia.com.br/"
    }
  },
  {
    "type": "node",
    "id": 973121314,
    "lat": -22.9849686,
    "lon": -43.2810261,
    "tags": {
      "tourism": "viewpoint"
    }
  },
  {
    "type": "node",
    "id": 993712007,
    "lat": -22.9827699,
    "lon": -43.1983029,
    "tags": {
      "name": "Mirante da Paz",
      "tourism": "viewpoint",
      "wikidata": "Q67324188"
    }
  },
  {
    "type": "node",
    "id": 1007228748,
    "lat": -22.9496871,
    "lon": -43.1823406,
    "tags": {
      "addr:housenumber": "462",
      "addr:street": "Rua Praia de Botafogo",
      "addr:unit": "3",
      "name": "Alpha Hostel",
      "tourism": "hostel"
    }
  },
  {
    "type": "node",
    "id": 1007229016,
    "lat": -22.9497563,
    "lon": -43.1826733,
    "tags": {
      "addr:housenumber": "462",
      "addr:street": "Rua Praia de Botafogo",
      "addr:unit": "9",
      "internet_access": "wlan;terminal",
      "name": "El Misti Hostel",
      "tourism": "hostel"
    }
  },
  {
    "type": "node",
    "id": 1007268968,
    "lat": -22.9725439,
    "lon": -43.1858029,
    "tags": {
      "addr:city": "Rio de Janeiro",
      "addr:country": "BR",
      "addr:housenumber": "2600",
      "addr:postcode": "22041-001",
      "addr:street": "Avenida Atlantica",
      "name": "JW Marriot Hotel",
      "tourism": "hotel",
      "wikidata": "Q10304634",
      "wikimedia_commons": "Category:JW Marriott Hotel (Copacabana)",
      "wikipedia": "pt:JW Marriott Hotel Rio de Janeiro"
    }
  },
  {
    "type": "node",
    "id": 1031254747,
    "lat": -22.9508270,
    "lon": -43.1859350,
    "tags": {
      "addr:city": "Rio de Janeiro",
      "addr:housenumber": "84",
      "addr:postcode": "22260-010",
      "addr:street": "Rua Estácio Coimbra",
      "name": "Hostel Vila Carioca",
      "phone": "+55-21-25353224",
      "tourism": "hostel",
      "website": "http://vilacarioca.com.br/"
    }
  },
  {
    "type": "node",
    "id": 1054499462,
    "lat": -22.6503470,
    "lon": -43.2063733,
    "tags": {
      "name": "Marco Estrada Real",
      "tourism": "information"
    }
  },
  {
    "type": "node",
    "id": 1075635711,
    "lat": -22.9418194,
    "lon": -43.1884428,
    "tags": {
      "tourism": "viewpoint"
    }
  },
  {
    "type": "node",
    "id": 1102670546,
    "lat": -22.5705561,
    "lon": -43.2518251,
    "tags": {
      "historic": "boundary_stone",
      "inscription": "Centenário de Petrópolis 16-03-1843 16-03-1943",
      "name": "Petrópolis"
    }
  },
  {
    "type": "node",
    "id": 1105680068,
    "lat": -22.9645008,
    "lon": -43.1732925,
    "tags": {
      "brand": "Hilton",
      "brand:wikidata": "Q598884",
      "name": "Hilton Rio de Janeiro Copacabana",
      "operator": "Windsor",
      "phone": "+55-21-21957800",
      "tourism": "hotel",
      "website": "https://www.windsorhoteis.com.br/"
    }
  },
  {
    "type": "node",
    "id": 1106862352,
    "lat": -22.9122085,
    "lon": -43.1760019,
    "tags": {
      "artist:wikidata": "Q976811",
      "artist_name": "Sankho Chaudhuri",
      "historic": "memorial",
      "material": "bronze",
      "memorial": "statue",
      "name": "Mahatma Gandhi",
      "note": "Estátua gigante em homenagem a Mahatma Gandhi em esquina da praça com mesmo nome.",
      "source": "Bing",
      "start_date": "1965-02",
      "subject:wikidata": "Q1001",
      "subject:wikipedia": "pt:Mahatma Gandhi",
      "wikidata": "Q61781935",
      "wikimedia_commons": "Category:Estátua de Mahatma Gandhi (Rio de Janeiro)"
    }
  },
  {
    "type": "node",
    "id": 1106862397,
    "lat": -22.9119738,
    "lon": -43.1735070,
    "tags": {
      "architect": "Benevenuta Berna",
      "artist_name": "Charles Keck",
      "artwork_subject": "figurative",
      "artwork_type": "statue",
      "material": "granite;bronze",
      "name": "Amizade entre os Povos",
      "start_date": "1931-07",
      "tourism": "artwork"
    }
  },
  {
    "type": "node",
    "id": 1108187702,
    "lat": -22.9704493,
    "lon": -43.1824353,
    "tags": {
      "information": "office",
      "opening_hours": "08:00-20:00",
      "tourism": "information",
      "website": "http://www.rioguiaoficial.com.br/"
    }
  },
  {
    "type": "node",
    "id": 1152139787,
    "lat": -22.5700004,
    "lon": -43.1849564,
    "tags": {
      "name": "Marco Estrada Real",
      "tourism": "information"
    }
  },
  {
    "type": "node",
    "id": 1153574019,
    "lat": -23.0114386,
    "lon": -43.3217887,
    "tags": {
      "name": "Windsor Barra",
      "tourism": "hotel",
      "wheelchair": "yes"
    }
  },
  {
    "type": "node",
    "id": 1162518709,
    "lat": -22.9529086,
    "lon": -43.1764098,
    "tags": {
      "historic": "memorial",
      "memorial": "statue",
      "name": "Antonio Frederico Ozanam"
    }
  },
  {
    "type": "node",
    "id": 1166379756,
    "lat": -22.9636012,
    "lon": -43.2828660,
    "tags": {
      "name": "Museu do Açude",
      "tourism": "museum",
      "wikidata": "Q10333880",
      "wikimedia_commons": "Category:Museu do Açude"
    }
  },
  {
    "type": "node",
    "id": 1219014500,
    "lat": -22.9854017,
    "lon": -43.2009420,
    "tags": {
      "name": "Terrasse Hostel",
      "tourism": "hostel"
    }
  },
  {
    "type": "node",
    "id": 1219014560,
    "lat": -22.9857142,
    "lon": -43.2006376,
    "tags": {
      "tourism": "hotel"
    }
  },
  {
    "type": "node",
    "id": 1234306547,
    "lat": -22.9302757,
    "lon": -43.1745941,
    "tags": {
      "name": "Castelinho do Flamengo",
      "tourism": "attraction",
      "wikidata": "Q9703653",
      "wikimedia_commons": "Category:Castelinho do Flamengo"
    }
  },
  {
    "type": "node",
    "id": 1307372704,
    "lat": -22.9708427,
    "lon": -43.1833880,
    "tags": {
      "description": "Estátua de Siqueira Campos",
      "historic": "memorial",
      "memorial": "statue",
      "name": "18 do Forte"
    }
  },
  {
    "type": "node",
    "id": 1307380772,
    "lat": -22.9843730,
    "lon": -43.1891700,
    "tags": {
      "addr:city": "Rio de Janeiro",
      "addr:street": "Calçadão de Copacabana",
      "addr:suburb": "Copacabana",
      "amenity": "bench",
      "backrest": "no",
      "historic": "monument",
      "monument": "statue",
      "name": "Estátua de Carlos Drummond de Andrade",
      "name:etymology:wikidata": "Q379745",
      "tourism": "attraction"
    }
  },
  {
    "type": "node",
    "id": 1319880155,
    "lat": -22.8982392,
    "lon": -43.1840816,
    "tags": {
      "name": "ip",
      "tourism": "artwork"
    }
  },
  {
    "type": "node",
    "id": 1326409438,
    "lat": -22.9113569,
    "lon": -43.1769281,
    "tags": {
      "addr:city": "Rio de Janeiro",
      "addr:housenumber": "25",
      "addr:street": "Rua Senador Dantas",
      "addr:suburb": "Centro",
      "name": "Hotel Atlântico Business Centro",
      "operator": "Atlantico",
      "tourism": "hotel"
    }
  },
  {
    "type": "node",
    "id": 1333950986,
    "lat": -22.9735346,
    "lon": -43.1901177,
    "tags": {
      "addr:city": "Rio de Janeiro",
      "addr:country": "BR",
      "addr:housenumber": "10",
      "addr:street": "Rua Leopoldo Miguez",
      "name": "Rio Ritz",
      "phone": "+55-21-22558929",
      "tourism": "hostel",
      "website": "http://www.rioritz.com.br/"
    }
  },
  {
    "type": "node",
    "id": 1346086174,
    "lat": -22.8657787,
    "lon": -43.1241553,
    "tags": {
      "historic": "wreck",
      "seamark:type": "wreck",
      "wreck:visible_at_high_tide": "yes",
      "wreck:visible_at_low_tide": "yes"
    }
  },
  {
    "type": "node",
    "id": 1346432383,
    "lat": -22.9016551,
    "lon": -43.1757493,
    "tags": {
      "artist_name": "José Resende",
      "artwork_subject": "abstract",
      "artwork_type": "sculpture",
      "material": "weathering_steel",
      "name": "Vênus Reclinada",
      "start_date": "1991-01",
      "tourism": "artwork"
    }
  },
  {
    "type": "node",
    "id": 1399864207,
    "lat": -22.9750170,
    "lon": -43.0240917,
    "tags": {
      "climbing": "crag",
      "climbing:sport": "yes",
      "name": "Campo Escola Helmut Heske",
      "natural": "cliff",
      "sport": "climbing",
      "tourism": "viewpoint",
      "type": "cliff"
    }
  },
  {
    "type": "node",
    "id": 1411279733,
    "lat": -22.9072636,
    "lon": -43.1815853,
    "tags": {
      "name": "Rio's Hotel",
      "tourism": "hotel"
    }
  },
  {
    "type": "node",
    "id": 1483285473,
    "lat": -22.9153714,
    "lon": -43.2053891,
    "tags": {
      "tourism": "guest_house"
    }
  },
  {
    "type": "node",
    "id": 1507157289,
    "lat": -22.8442784,
    "lon": -43.2747810,
    "tags": {
      "tourism": "viewpoint"
    }
  },
  {
    "type": "node",
    "id": 1513985526,
    "lat": -22.9906000,
    "lon": -43.1914910,
    "tags": {
      "tourism": "viewpoint"
    }
  },
  {
    "type": "node",
    "id": 1515291422,
    "lat": -22.9864124,
    "lon": -43.1988753,
    "tags": {
      "name": "Galeria de Arte",
      "tourism": "artwork"
    }
  },
  {
    "type": "node",
    "id": 1555954385,
    "lat": -22.9831940,
    "lon": -43.1906400,
    "tags": {
      "addr:housenumber": "17",
      "addr:street": "Rua Francisco Sá",
      "name": "Portinari Design Hotel",
      "phone": "+552132228800",
      "tourism": "hotel",
      "website": "http://www.portinaridesignhotel.com"
    }
  },
  {
    "type": "node",
    "id": 1585221203,
    "lat": -22.9906549,
    "lon": -43.2398667,
    "tags": {
      "alt_name": "Irmão Maior do Leblon",
      "ele": "539",
      "name": "Irmão Maior",
      "natural": "peak",
      "source": "IPP",
      "tourism": "viewpoint"
    }
  },
  {
    "type": "node",
    "id": 1587555081,
    "lat": -22.9836451,
    "lon": -43.2059892,
    "tags": {
      "historic": "monument",
      "name": "Pinheiro Machado",
      "start_date": "1931",
      "wikidata": "Q10332154",
      "wikimedia_commons": "Category:Monumento ao Senador Pinheiro Machado",
      "wikipedia": "pt:Monumento ao Senador Pinheiro Machado"
    }
  },
  {
    "type": "node",
    "id": 1683223356,
    "lat": -22.9229105,
    "lon": -43.1891549,
    "tags": {
      "name": "Casa Cool Beans",
      "tourism": "guest_house"
    }
  },
  {
    "type": "node",
    "id": 1739267342,
    "lat": -22.8639977,
    "lon": -43.5506656,
    "tags": {
      "name": "Oklahoma",
      "tourism": "motel"
    }
  },
  {
    "type": "node",
    "id": 1743572839,
    "lat": -22.9085518,
    "lon": -43.1080416,
    "tags": {
      "tourism": "hotel"
    }
  },
  {
    "type": "node",
    "id": 1746255488,
    "lat": -22.8945430,
    "lon": -43.2966010,
    "tags": {
      "name": "Megare Motel",
      "tourism": "hotel"
    }
  },
  {
    "type": "node",
    "id": 1756741703,
    "lat": -22.7903589,
    "lon": -43.3067322,
    "tags": {
      "addr:street": "Avenida Brigadeiro Lima e Silva",
      "amenity": "pharmacy",
      "healthcare": "pharmacy",
      "name": "Museu Ciência e Vida;Drogaria Pacheco",
      "tourism": "museum",
      "website": "https://www.drogariaspacheco.com.br/",
      "wikidata": "Q56695430"
    }
  },
  {
    "type": "node",
    "id": 1756806191,
    "lat": -22.7894873,
    "lon": -43.3079823,
    "tags": {
      "name": "Prefeitura Municipal de Duque de Caxias - Sede 2",
      "tourism": "information"
    }
  },
  {
    "type": "node",
    "id": 1756806193,
    "lat": -22.7907237,
    "lon": -43.3081540,
    "tags": {
      "name": "Câmara Municipal de Duque de Caxias",
      "tourism": "information"
    }
  },
  {
    "type": "node",
    "id": 1757616708,
    "lat": -22.9899851,
    "lon": -43.2273228,
    "tags": {
      "name": "Mirante do Leblon",
      "name:ru": "Смотровая площадка Леблона",
      "tourism": "viewpoint"
    }
  },
  {
    "type": "node",
    "id": 1760689571,
    "lat": -22.8469742,
    "lon": -43.5974206,
    "tags": {
      "tourism": "viewpoint"
    }
  },
  {
    "type": "node",
    "id": 1760689676,
    "lat": -22.8460550,
    "lon": -43.5975450,
    "tags": {
      "tourism": "viewpoint"
    }
  },
  {
    "type": "node",
    "id": 1760689720,
    "lat": -22.8447480,
    "lon": -43.5961678,
    "tags": {
      "tourism": "viewpoint"
    }
  },
  {
    "type": "node",
    "id": 1760689927,
    "lat": -22.8455875,
    "lon": -43.5970385,
    "tags": {
      "tourism": "viewpoint"
    }
  },
  {
    "type": "node",
    "id": 1766683869,
    "lat": -23.0019836,
    "lon": -43.3919096,
    "tags": {
      "addr:city": "Rio de Janeiro",
      "addr:housenumber": "1355",
      "addr:postcode": "22793-295",
      "addr:street": "Rua Malibu",
      "name": "Bourbon Barra Premium Residence",
      "tourism": "hotel",
      "website": "https://www.bourbon.com.br/hoteis-e-resorts/bourbon-rio-de-janeiro-residence/"
    }
  },
  {
    "type": "node",
    "id": 1770591794,
    "lat": -22.8010009,
    "lon": -43.3512890,
    "tags": {
      "amenity": "love_hotel",
      "name": "Motel Vila Real",
      "tourism": "motel"
    }
  },
  {
    "type": "node",
    "id": 1770591820,
    "lat": -22.8011634,
    "lon": -43.3504679,
    "tags": {
      "name": "Vogue Hotel",
      "tourism": "hotel"
    }
  },
  {
    "type": "node",
    "id": 1770591832,
    "lat": -22.7992842,
    "lon": -43.3561810,
    "tags": {
      "amenity": "love_hotel",
      "tourism": "motel"
    }
  },
  {
    "type": "node",
    "id": 1783088856,
    "lat": -22.9572859,
    "lon": -43.2743342,
    "tags": {
      "ele": "565",
      "name": "Alto da Bandeira",
      "natural": "peak",
      "source": "IPP",
      "tourism": "viewpoint",
      "wikidata": "Q22069180"
    }
  },
  {
    "type": "node",
    "id": 1804427083,
    "lat": -22.9493424,
    "lon": -43.1566254,
    "tags": {
      "tourism": "viewpoint"
    }
  },
  {
    "type": "node",
    "id": 1804427089,
    "lat": -22.9493854,
    "lon": -43.1561987,
    "tags": {
      "tourism": "picnic_site"
    }
  },
  {
    "type": "node",
    "id": 1804427140,
    "lat": -22.9496453,
    "lon": -43.1564333,
    "tags": {
      "tourism": "viewpoint",
      "wheelchair": "yes"
    }
  },
  {
    "type": "node",
    "id": 1823401371,
    "lat": -22.8974687,
    "lon": -43.1255574,
    "tags": {
      "artwork_type": "sculpture",
      "name": "Busto do Professor Mazzini Bueno",
      "tourism": "artwork"
    }
  },
  {
    "type": "node",
    "id": 1831316117,
    "lat": -22.9250721,
    "lon": -43.2341302,
    "tags": {
      "tourism": "information"
    }
  },
  {
    "type": "node",
    "id": 1852461113,
    "lat": -22.9120021,
    "lon": -43.1085856,
    "tags": {
      "addr:city": "Niterói",
      "addr:housenumber": "12",
      "addr:postcode": "24230320",
      "addr:street": "Avenida Almirante Ary Parreiras",
      "addr:suburb": "Icaraí",
      "name": "Tower Icarai Hotel",
      "phone": "55 21 26122121",
      "tourism": "hotel"
    }
  },
  {
    "type": "node",
    "id": 1854763257,
    "lat": -22.9512239,
    "lon": -43.1874746,
    "tags": {
      "addr:housenumber": "52",
      "addr:street": "Rua Dezenove de Fevereiro",
      "addr:suburb": "Botafogo",
      "internet_access": "yes",
      "name": "LimeTime Hostel",
      "phone": "55 21 2553-7420",
      "smoking": "yes",
      "tourism": "hostel",
      "website": "www.standfasthostel.com"
    }
  },
  {
    "type": "node",
    "id": 1885880564,
    "lat": -22.9686449,
    "lon": -43.1890949,
    "tags": {
      "addr:city": "Rio de Janeiro",
      "addr:street": "Rua Tonelero",
      "name": "Mirador",
      "smoking": "no",
      "tourism": "hotel"
    }
  },
  {
    "type": "node",
    "id": 1898416801,
    "lat": -22.9298251,
    "lon": -43.1793378,
    "tags": {
      "name": "Hotel Scorial",
      "tourism": "hotel"
    }
  },
  {
    "type": "node",
    "id": 1920336534,
    "lat": -22.9293831,
    "lon": -43.1119153,
    "tags": {
      "tourism": "viewpoint"
    }
  },
  {
    "type": "node",
    "id": 1920341372,
    "lat": -22.9310158,
    "lon": -43.1133393,
    "tags": {
      "note": "Vista Jurujuba Cultivo Mexilhões, Vila Pescadores Bucolica",
      "tourism": "viewpoint"
    }
  },
  {
    "type": "node",
    "id": 1920398304,
    "lat": -22.9263238,
    "lon": -43.1220052,
    "tags": {
      "historic": "ruins",
      "name": "Casarão em Ruinas"
    }
  },
  {
    "type": "node",
    "id": 1920404430,
    "lat": -22.9239171,
    "lon": -43.1217993,
    "tags": {
      "ele": "60",
      "name": "Pedra do Morcego",
      "natural": "peak",
      "tourism": "viewpoint"
    }
  },
  {
    "type": "node",
    "id": 1920415496,
    "lat": -22.9361544,
    "lon": -43.1081903,
    "tags": {
      "name": "Hotel de Trânsito da Marinha",
      "tourism": "hotel"
    }
  },
  {
    "type": "node",
    "id": 1920424483,
    "lat": -22.9730466,
    "lon": -43.0193051,
    "tags": {
      "tourism": "viewpoint"
    }
  },
  {
    "type": "node",
    "id": 1920433555,
    "lat": -22.9777698,
    "lon": -43.0281352,
    "tags": {
      "name": "Costão",
      "tourism": "viewpoint"
    }
  },
  {
    "type": "node",
    "id": 1920433560,
    "lat": -22.9752757,
    "lon": -43.0237685,
    "tags": {
      "name": "Canyonsinho",
      "tourism": "viewpoint"
    }
  },
  {
    "type": "node",
    "id": 1920445174,
    "lat": -22.9798046,
    "lon": -43.0245625,
    "tags": {
      "name": "Pata do Gato",
      "tourism": "viewpoint"
    }
  },
  {
    "type": "node",
    "id": 1920490503,
    "lat": -22.9681784,
    "lon": -43.0456554,
    "tags": {
      "historic": "archaeological_site",
      "name": "Sambaquis de Itaipu"
    }
  },
  {
    "type": "node",
    "id": 1920490521,
    "lat": -22.9715221,
    "lon": -43.0450063,
    "tags": {
      "addr:city": "Niterói",
      "name": "Museu de Arqueologia de Itaipu",
      "operator": "Ibram",
      "tourism": "museum",
      "website": "http://www.museus.gov.br/os-museus/museus-ibram/",
      "wikidata": "Q10333744",
      "wikimedia_commons": "Category:Museu Socioambiental de Itaipu",
      "wikipedia": "pt:Museu de Arqueologia de Itaipu"
    }
  },
  {
    "type": "node",
    "id": 1920584636,
    "lat": -22.9661271,
    "lon": -43.0475993,
    "tags": {
      "name": "Aldeia Indigena Guarani de Camboinhas",
      "tourism": "information"
    }
  },
  {
    "type": "node",
    "id": 1920608028,
    "lat": -22.9770339,
    "lon": -43.0500595,
    "tags": {
      "name": "Casa de Pedra (Trilha e Mergulho)",
      "tourism": "viewpoint"
    }
  },
  {
    "type": "node",
    "id": 1920608129,
    "lat": -22.9731026,
    "lon": -43.0413746,
    "tags": {
      "tourism": "viewpoint"
    }
  },
  {
    "type": "node",
    "id": 1920608175,
    "lat": -22.9814097,
    "lon": -43.0513148,
    "tags": {
      "name": "Mirante da Ponta das Andorinhas",
      "tourism": "viewpoint"
    }
  },
  {
    "type": "node",
    "id": 1920608203,
    "lat": -22.9741743,
    "lon": -43.0428927,
    "tags": {
      "name": "Mirante para Itacoatiara",
      "tourism": "viewpoint"
    }
  },
  {
    "type": "node",
    "id": 1920608275,
    "lat": -22.9734384,
    "lon": -43.0427639,
    "tags": {
      "tourism": "viewpoint"
    }
  },
  {
    "type": "node",
    "id": 1920610130,
    "lat": -22.9798836,
    "lon": -43.0462991,
    "tags": {
      "name": "Mirante Perigoso Pescador",
      "tourism": "viewpoint"
    }
  },
  {
    "type": "node",
    "id": 1920653627,
    "lat": -22.9071625,
    "lon": -43.1311766,
    "tags": {
      "tourism": "viewpoint"
    }
  },
  {
    "type": "node",
    "id": 1922218710,
    "lat": -22.9693981,
    "lon": -43.0417119,
    "tags": {
      "amenity": "place_of_worship",
      "landmark": "tower",
      "name": "Igreja de Itaipu",
      "religion": "christian",
      "seamark:landmark:category": "tower",
      "seamark:landmark:function": "church",
      "seamark:type": "landmark"
    }
  },
  {
    "type": "node",
    "id": 1922227781,
    "lat": -22.9757519,
    "lon": -43.0279083,
    "tags": {
      "name": "Camaleão",
      "tourism": "viewpoint"
    }
  },
  {
    "type": "node",
    "id": 1923225967,
    "lat": -22.9662285,
    "lon": -43.0069538,
    "tags": {
      "name": "Sede do Parque Estadual da Serra da Tiririca",
      "tourism": "chalet"
    }
  },
  {
    "type": "node",
    "id": 1924376830,
    "lat": -22.9137354,
    "lon": -43.1100700,
    "tags": {
      "tourism": "viewpoint"
    }
  },
  {
    "type": "node",
    "id": 1928237791,
    "lat": -22.9629526,
    "lon": -43.0213559,
    "tags": {
      "name": "Mirante de Itaipuaçu",
      "tourism": "viewpoint"
    }
  },
  {
    "type": "node",
    "id": 1928442138,
    "lat": -22.9015278,
    "lon": -43.0961681,
    "tags": {
      "tourism": "viewpoint"
    }
  },
  {
    "type": "node",
    "id": 1932475267,
    "lat": -22.9095300,
    "lon": -43.1314788,
    "tags": {
      "name": "Mirante do pulo",
      "tourism": "viewpoint"
    }
  },
  {
    "type": "node",
    "id": 1934469015,
    "lat": -22.7457624,
    "lon": -42.8540848,
    "tags": {
      "name": "Hotel Pedra Bonita",
      "tourism": "hotel"
    }
  },
  {
    "type": "node",
    "id": 1934610107,
    "lat": -22.8532357,
    "lon": -43.1167202,
    "tags": {
      "depth:dangerous": "yes",
      "historic": "wreck",
      "seamark:type": "wreck",
      "seamark:wreck:category": "hull_showing"
    }
  },
  {
    "type": "node",
    "id": 1934610278,
    "lat": -22.8666569,
    "lon": -43.1266804,
    "tags": {
      "historic": "wreck",
      "seamark:type": "wreck",
      "seamark:wreck:category": "hull_showing",
      "tidal": "no"
    }
  },
  {
    "type": "node",
    "id": 1934610279,
    "lat": -22.8668999,
    "lon": -43.1269137,
    "tags": {
      "historic": "wreck",
      "seamark:type": "wreck",
      "seamark:wreck:category": "hull_showing",
      "tidal": "no"
    }
  },
  {
    "type": "node",
    "id": 1934610284,
    "lat": -22.8672363,
    "lon": -43.1262747,
    "tags": {
      "historic": "wreck",
      "seamark:type": "wreck",
      "seamark:wreck:category": "hull_showing",
      "tidal": "no"
    }
  },
  {
    "type": "node",
    "id": 1934610285,
    "lat": -22.8674513,
    "lon": -43.1268427,
    "tags": {
      "historic": "wreck",
      "seamark:type": "wreck",
      "seamark:wreck:category": "hull_showing",
      "tidal": "no"
    }
  },
  {
    "type": "node",
    "id": 1934610286,
    "lat": -22.8674793,
    "lon": -43.1261530,
    "tags": {
      "historic": "wreck",
      "seamark:type": "wreck",
      "seamark:wreck:category": "hull_showing",
      "tidal": "no"
    }
  },
  {
    "type": "node",
    "id": 1942970913,
    "lat": -22.8995288,
    "lon": -43.1305133,
    "tags": {
      "historic": "monument",
      "name": "Busto de Dom Pedro II"
    }
  },
  {
    "type": "node",
    "id": 1946473192,
    "lat": -22.9756213,
    "lon": -43.0411049,
    "tags": {
      "name": "Pedra do Choque",
      "tourism": "viewpoint"
    }
  },
  {
    "type": "node",
    "id": 1946940518,
    "lat": -22.9773482,
    "lon": -43.0526816,
    "tags": {
      "description": "Pico de mergulho",
      "name": "Fenda da Menina (Mergulho)",
      "sport": "diving",
      "tourism": "attraction"
    }
  },
  {
    "type": "node",
    "id": 1947908639,
    "lat": -22.9294659,
    "lon": -43.0872183,
    "tags": {
      "historic": "ruins"
    }
  },
  {
    "type": "node",
    "id": 1959908362,
    "lat": -22.9748301,
    "lon": -43.0367849,
    "tags": {
      "description": "Correnteza perigosa",
      "name": "Vala do Pampo",
      "tourism": "information"
    }
  },
  {
    "type": "node",
    "id": 1969469949,
    "lat": -22.8210303,
    "lon": -43.1682186,
    "tags": {
      "historic": "wreck",
      "seamark:type": "wreck",
      "seamark:wreck:category": "hull_showing",
      "stranded": "yes"
    }
  },
  {
    "type": "node",
    "id": 1969819744,
    "lat": -22.5200069,
    "lon": -42.9645442,
    "tags": {
      "tourism": "hostel"
    }
  },
  {
    "type": "node",
    "id": 1969819886,
    "lat": -22.5204826,
    "lon": -42.9647266,
    "tags": {
      "tourism": "hostel"
    }
  },
  {
    "type": "node",
    "id": 1971466309,
    "lat": -22.7964064,
    "lon": -43.1147453,
    "tags": {
      "historic": "wreck",
      "seamark:type": "wreck",
      "seamark:wreck:category": "hull_showing",
      "stranded": "yes"
    }
  },
  {
    "type": "node",
    "id": 1971469826,
    "lat": -22.8263162,
    "lon": -43.2564806,
    "tags": {
      "historic": "wreck",
      "seamark:type": "wreck",
      "seamark:wreck:category": "hull_showing",
      "stranded": "yes"
    }
  },
  {
    "type": "node",
    "id": 1971470312,
    "lat": -22.8320480,
    "lon": -43.1003748,
    "tags": {
      "historic": "wreck",
      "seamark:type": "wreck",
      "seamark:wreck:category": "hull_showing",
      "stranded": "yes"
    }
  },
  {
    "type": "node",
    "id": 1971471119,
    "lat": -22.8334318,
    "lon": -43.2463330,
    "tags": {
      "historic": "wreck",
      "seamark:type": "wreck"
    }
  },
  {
    "type": "node",
    "id": 1971472609,
    "lat": -22.8367789,
    "lon": -43.1051592,
    "tags": {
      "historic": "wreck",
      "seamark:type": "wreck",
      "seamark:wreck:category": "hull_showing",
      "stranded": "yes"
    }
  },
  {
    "type": "node",
    "id": 1971472947,
    "lat": -22.8378249,
    "lon": -43.2397629,
    "tags": {
      "historic": "wreck",
      "seamark:type": "wreck",
      "seamark:wreck:category": "hull_showing",
      "stranded": "yes"
    }
  },
  {
    "type": "node",
    "id": 1971473023,
    "lat": -22.8589768,
    "lon": -43.1729661,
    "tags": {
      "depth:clearance": "6",
      "historic": "wreck",
      "seamark:type": "wreck"
    }
  },
  {
    "type": "node",
    "id": 1971473095,
    "lat": -22.8653538,
    "lon": -43.1166945,
    "tags": {
      "historic": "wreck",
      "seamark:type": "wreck"
    }
  },
  {
    "type": "node",
    "id": 1971473691,
    "lat": -22.8734028,
    "lon": -43.1209930,
    "tags": {
      "historic": "wreck",
      "seamark:type": "wreck",
      "seamark:wreck:category": "hull_showing",
      "stranded": "yes"
    }
  },
  {
    "type": "node",
    "id": 1971474076,
    "lat": -22.8737106,
    "lon": -43.2173279,
    "tags": {
      "historic": "wreck",
      "seamark:type": "wreck",
      "seamark:wreck:category": "hull_showing",
      "stranded": "yes"
    }
  },
  {
    "type": "node",
    "id": 1971474995,
    "lat": -22.8753180,
    "lon": -43.1180793,
    "tags": {
      "historic": "wreck",
      "seamark:type": "wreck"
    }
  },
  {
    "type": "node",
    "id": 1971475110,
    "lat": -22.8757312,
    "lon": -43.1176600,
    "tags": {
      "historic": "wreck",
      "seamark:type": "wreck"
    }
  },
  {
    "type": "node",
    "id": 1971496606,
    "lat": -22.8834527,
    "lon": -43.1341243,
    "tags": {
      "historic": "monument",
      "seamark:landmark:category": "monument",
      "seamark:type": "landmark"
    }
  },
  {
    "type": "node",
    "id": 1971501759,
    "lat": -22.8961386,
    "lon": -43.1631212,
    "tags": {
      "depth:clearance": "9,1",
      "historic": "wreck",
      "seamark:type": "wreck"
    }
  },
  {
    "type": "node",
    "id": 1971502194,
    "lat": -22.9615750,
    "lon": -43.0597584,
    "tags": {
      "historic": "wreck",
      "seamark:type": "wreck",
      "seamark:wreck:category": "hull_showing",
      "stranded": "yes"
    }
  },
  {
    "type": "node",
    "id": 1974998707,
    "lat": -23.0507095,
    "lon": -43.1367590,
    "tags": {
      "historic": "wreck",
      "seamark:type": "wreck"
    }
  },
  {
    "type": "node",
    "id": 1979216557,
    "lat": -22.5075020,
    "lon": -43.1708403,
    "tags": {
      "name": "Hotel York",
      "tourism": "hotel"
    }
  },
  {
    "type": "node",
    "id": 1979218327,
    "lat": -22.5083594,
    "lon": -43.1701435,
    "tags": {
      "addr:city": "petropolis",
      "addr:housenumber": "86",
      "addr:postcode": "25610110",
      "addr:street": "Rua Doutor Porciuncula",
      "addr:suburb": "centro",
      "internet_access": "wlan",
      "internet_access:fee": "no",
      "name": "Hotel Orleans",
      "operator": "Hotel Orleans",
      "rooms": "18",
      "smoking": "outside",
      "tourism": "hotel"
    }
  },
  {
    "type": "node",
    "id": 1979219646,
    "lat": -22.5071854,
    "lon": -43.1736191,
    "tags": {
      "addr:city": "Petrópolis",
      "addr:housenumber": "152",
      "addr:street": "Avenida Dom Pedro I",
      "name": "Hotel e Pousada Dom Pedro",
      "tourism": "hotel"
    }
  },
  {
    "type": "node",
    "id": 1979221471,
    "lat": -22.5071408,
    "lon": -43.1767524,
    "tags": {
      "name": "Hotel Casablanca Imperial",
      "tourism": "hotel"
    }
  },
  {
    "type": "node",
    "id": 1979238649,
    "lat": -22.5103341,
    "lon": -43.1774140,
    "tags": {
      "name": "Hotel Casablanca Palace",
      "tourism": "hotel"
    }
  },
  {
    "type": "node",
    "id": 1979247737,
    "lat": -22.5127156,
    "lon": -43.1801641,
    "tags": {
      "name": "Hotel Serra da Estrela",
      "tourism": "hotel"
    }
  },
  {
    "type": "node",
    "id": 1979247739,
    "lat": -22.5121221,
    "lon": -43.1788886,
    "tags": {
      "name": "Casablanca Center Hotel",
      "tourism": "hotel"
    }
  },
  {
    "type": "node",
    "id": 1989354021,
    "lat": -22.8976732,
    "lon": -43.1947661,
    "tags": {
      "information": "office",
      "name": "Diários Associados",
      "seamark:name": "Rio Radio (Livramento)",
      "seamark:radio_station:callsign": "PPR",
      "seamark:radio_station:category": "public_communication",
      "seamark:type": "radio_station",
      "tourism": "information"
    }
  },
  {
    "type": "node",
    "id": 2012130910,
    "lat": -22.9688960,
    "lon": -43.1845000,
    "tags": {
      "addr:housenumber": "552",
      "addr:street": "Avenida Nossa Senhora da Copacabana",
      "name": "Mar Palace Hatel Copacabana",
      "tourism": "hotel"
    }
  },
  {
    "type": "node",
    "id": 2015314210,
    "lat": -22.9971642,
    "lon": -43.2377209,
    "tags": {
      "name": "Vidigalbergue",
      "tourism": "hostel"
    }
  },
  {
    "type": "node",
    "id": 2015314243,
    "lat": -22.9935914,
    "lon": -43.2406690,
    "tags": {
      "name": "Hostel Jaquera",
      "tourism": "hostel"
    }
  },
  {
    "type": "node",
    "id": 2021881725,
    "lat": -22.8220631,
    "lon": -43.3197460,
    "tags": {
      "historic": "monument",
      "landmark": "statue",
      "name": "Deputado Pedro Fernandes",
      "start_date": "2011-04-26"
    }
  },
  {
    "type": "node",
    "id": 2039945089,
    "lat": -22.9496506,
    "lon": -43.1808801,
    "tags": {
      "historic": "memorial",
      "memorial": "bust",
      "name": "General Francisco Morazan",
      "source": "survey"
    }
  },
  {
    "type": "node",
    "id": 2081744427,
    "lat": -23.0088252,
    "lon": -43.2874624,
    "tags": {
      "name": "Mirante do Joá",
      "tourism": "viewpoint"
    }
  },
  {
    "type": "node",
    "id": 2081744442,
    "lat": -22.8561163,
    "lon": -43.2482265,
    "tags": {
      "addr:city": "Rio de Janeiro",
      "addr:housenumber": "6505",
      "addr:street": "Avenida Brasil",
      "amenity": "love_hotel",
      "name": "Stop Time",
      "phone": "+55-21-39760082",
      "source": "survey",
      "tourism": "motel"
    }
  },
  {
    "type": "node",
    "id": 2089491309,
    "lat": -22.8985375,
    "lon": -43.1856009,
    "tags": {
      "tourism": "viewpoint"
    }
  },
  {
    "type": "node",
    "id": 2096965815,
    "lat": -22.8682560,
    "lon": -43.3414087,
    "tags": {
      "source": "survey",
      "tourism": "information"
    }
  },
  {
    "type": "node",
    "id": 2096966054,
    "lat": -22.8657794,
    "lon": -43.3436383,
    "tags": {
      "source": "survey",
      "tourism": "information"
    }
  },
  {
    "type": "node",
    "id": 2096966185,
    "lat": -22.8628048,
    "lon": -43.3461829,
    "tags": {
      "source": "survey",
      "tourism": "information"
    }
  },
  {
    "type": "node",
    "id": 2099879851,
    "lat": -22.9662715,
    "lon": -43.2194233,
    "tags": {
      "historic": "monument",
      "name": "Otto Lara Resende",
      "source": "survey",
      "wikidata": "Q67210336"
    }
  },
  {
    "type": "node",
    "id": 2100402868,
    "lat": -22.9670606,
    "lon": -43.2182631,
    "tags": {
      "historic": "monument",
      "name": "Estátua do Apresentador Chacrinha",
      "source": "survey",
      "start_date": "2010-11-07"
    }
  },
  {
    "type": "node",
    "id": 2100483377,
    "lat": -22.9621159,
    "lon": -43.2037421,
    "tags": {
      "historic": "memorial",
      "memorial": "statue"
    }
  },
  {
    "type": "node",
    "id": 2100483388,
    "lat": -22.9605435,
    "lon": -43.2036660,
    "tags": {
      "historic": "memorial",
      "memorial": "bust",
      "name": "Manoel Madruga"
    }
  },
  {
    "type": "node",
    "id": 2100483392,
    "lat": -22.9605445,
    "lon": -43.2032587,
    "tags": {
      "historic": "memorial",
      "memorial": "bust",
      "name": "J. Seabra"
    }
  },
  {
    "type": "node",
    "id": 2100483400,
    "lat": -22.9549473,
    "lon": -43.1658785,
    "tags": {
      "historic": "monument",
      "name": "Aos Herois de Laguna e Dourados",
      "note": "1938;statue",
      "source": "survey",
      "wikidata": "Q10332161",
      "wikimedia_commons": "Category:Monumento aos Heróis de Laguna e Dourados"
    }
  },
  {
    "type": "node",
    "id": 2100483401,
    "lat": -22.9546719,
    "lon": -43.1667859,
    "tags": {
      "historic": "monument",
      "source": "survey"
    }
  },
  {
    "type": "node",
    "id": 2102103437,
    "lat": -22.9625308,
    "lon": -43.2186908,
    "tags": {
      "fixme": "Figueira, Ficus Tomentella",
      "historic": "yes",
      "name": "Miguel",
      "natural": "tree",
      "source": "survey"
    }
  },
  {
    "type": "node",
    "id": 2111081751,
    "lat": -22.9529571,
    "lon": -43.0790151,
    "tags": {
      "historic": "monument",
      "name": "Cópia Pequena do Cristo Redentor do Rio de Janeiro"
    }
  },
  {
    "type": "node",
    "id": 2122847794,
    "lat": -22.8323990,
    "lon": -43.0969059,
    "tags": {
      "name": "Associação de Pescadores",
      "tourism": "information"
    }
  },
  {
    "type": "node",
    "id": 2170086998,
    "lat": -22.9619421,
    "lon": -43.1764868,
    "tags": {
      "addr:housenumber": "11",
      "addr:street": "Rua Felipe de Oliveira",
      "name": "Copinha Hostel",
      "phone": "+55-21-22758529",
      "phone:2": "+55-21-22759011",
      "tourism": "hostel",
      "website": "http://www.copinhahostel.com.br/"
    }
  },
  {
    "type": "node",
    "id": 2182332895,
    "lat": -22.9739828,
    "lon": -43.2163377,
    "tags": {
      "name": "Rio, Marcelo de Golfinhos",
      "source": "survey",
      "tourism": "museum"
    }
  },
  {
    "type": "node",
    "id": 2182536328,
    "lat": -22.9810216,
    "lon": -43.2079726,
    "tags": {
      "addr:housenumber": "1164",
      "addr:street": "Avenida Epitácio Pessoa",
      "name": "Casa do Saber",
      "phone": "+55-21-22272237",
      "tourism": "museum",
      "website": "https://www.casadosaber.com.br/"
    }
  },
  {
    "type": "node",
    "id": 2182536361,
    "lat": -22.9768298,
    "lon": -43.1919973,
    "tags": {
      "addr:housenumber": "73",
      "addr:street": "Rua Xavier da Silveira",
      "name": "Copacabana Flat Hotel Residência",
      "source": "survey",
      "tourism": "hotel"
    }
  },
  {
    "type": "node",
    "id": 2184276224,
    "lat": -22.9813984,
    "lon": -43.1901178,
    "tags": {
      "addr:city": "Rio de Janeiro",
      "addr:housenumber": "48",
      "addr:postcode": "22081-000",
      "addr:street": "Rua Sousa Lima",
      "addr:suburb": "Copacabana",
      "internet_access": "yes",
      "internet_access:fee": "no",
      "name": "Grand Mercure Rio de Janeiro Copacabana",
      "rooms": "319",
      "tourism": "hotel"
    }
  },
  {
    "type": "node",
    "id": 2184276665,
    "lat": -22.9850742,
    "lon": -43.1896517,
    "tags": {
      "name": "Orla Hotel",
      "tourism": "hotel"
    }
  },
  {
    "type": "node",
    "id": 2184276778,
    "lat": -22.9826181,
    "lon": -43.1911947,
    "tags": {
      "name": "Copacabana Rio Hotel",
      "source": "survey",
      "tourism": "hotel"
    }
  },
  {
    "type": "node",
    "id": 2203274273,
    "lat": -22.9617130,
    "lon": -43.1759092,
    "tags": {
      "artist_name": "Felix Charpentier",
      "historic": "monument",
      "name": "Barão do Rio Branco",
      "source": "survey"
    }
  },
  {
    "type": "node",
    "id": 2203274312,
    "lat": -22.9617400,
    "lon": -43.1756243,
    "tags": {
      "historic": "monument",
      "name": "Braguinha",
      "source": "survey",
      "wikidata": "Q67205437"
    }
  },
  {
    "type": "node",
    "id": 2217938619,
    "lat": -22.8192807,
    "lon": -43.3163900,
    "tags": {
      "name": "Motel Champion",
      "tourism": "motel"
    }
  },
  {
    "type": "node",
    "id": 2217938620,
    "lat": -22.8134361,
    "lon": -43.3288355,
    "tags": {
      "tourism": "motel"
    }
  },
  {
    "type": "node",
    "id": 2250368877,
    "lat": -22.9834366,
    "lon": -43.2088664,
    "tags": {
      "name": "H. Stern Museum",
      "tourism": "museum"
    }
  },
  {
    "type": "node",
    "id": 2256422504,
    "lat": -22.8262368,
    "lon": -43.3143471,
    "tags": {
      "historic": "memorial",
      "memorial": "ghost_bike",
      "name": "Ghost Bike Valdemar Jesuino dos Santos",
      "source": "survey"
    }
  },
  {
    "type": "node",
    "id": 2260204371,
    "lat": -22.9047882,
    "lon": -43.2182850,
    "tags": {
      "description": "Monumento cedido pelo governo do Irã ao Brasil.",
      "historic": "monument",
      "name": "Ahuramazda",
      "source": "survey"
    }
  },
  {
    "type": "node",
    "id": 2263419908,
    "lat": -22.9797337,
    "lon": -43.2308900,
    "tags": {
      "historic": "memorial",
      "name": "Rafael Mascarenhas",
      "source": "survey"
    }
  },
  {
    "type": "node",
    "id": 2263483019,
    "lat": -23.0134044,
    "lon": -43.3140692,
    "tags": {
      "name": "Sol da Barra",
      "source": "survey",
      "tourism": "hotel"
    }
  },
  {
    "type": "node",
    "id": 2265242690,
    "lat": -23.0053791,
    "lon": -43.3151246,
    "tags": {
      "addr:housenumber": "301",
      "addr:postcode": "22640-080",
      "addr:street": "Avenida Grande Canal",
      "name": "Pousada Barra Sol",
      "phone": "+55-21-24921190",
      "source": "survey",
      "tourism": "hostel",
      "website": "https://www.pousadabarrasol.com.br/"
    }
  },
  {
    "type": "node",
    "id": 2311493115,
    "lat": -22.8795987,
    "lon": -43.0568260,
    "tags": {
      "name": "Shalom",
      "source": "survey",
      "tourism": "motel"
    }
  },
  {
    "type": "node",
    "id": 2316550192,
    "lat": -22.9551054,
    "lon": -43.1701930,
    "tags": {
      "historic": "monument",
      "name": "Mario de Andrade",
      "source": "survey"
    }
  },
  {
    "type": "node",
    "id": 2318479113,
    "lat": -22.9676165,
    "lon": -43.1868037,
    "tags": {
      "addr:city": "Rio de Janeiro",
      "addr:housenumber": "197",
      "addr:postcode": "22030-000",
      "addr:street": "Rua Tonelero",
      "addr:suburb": "Copacabana",
      "name": "El Misti Rio",
      "phone": "+ 55 21 3269 4983",
      "source": "survey",
      "tourism": "hostel",
      "website": "https://www.elmistihostelrio.com/"
    }
  },
  {
    "type": "node",
    "id": 2318497672,
    "lat": -22.9828078,
    "lon": -43.2238017,
    "tags": {
      "name": "Monsieur Le-Blond Apart Hotel",
      "source": "survey",
      "tourism": "hotel"
    }
  },
  {
    "type": "node",
    "id": 2328359256,
    "lat": -22.9125104,
    "lon": -43.1821247,
    "tags": {
      "addr:housenumber": "186",
      "addr:street": "Rua do Lavradio",
      "name": "Manga Hostel",
      "source": "survey",
      "tourism": "hostel"
    }
  },
  {
    "type": "node",
    "id": 2331227924,
    "lat": -22.9850404,
    "lon": -43.2154247,
    "tags": {
      "historic": "monument",
      "name": "Almirante Saldanha da Gama"
    }
  },
  {
    "type": "node",
    "id": 2332456147,
    "lat": -22.9897605,
    "lon": -43.1912469,
    "tags": {
      "amenity": "bench",
      "artwork_type": "sculpture",
      "backrest": "no",
      "commemorates:wikidata": "Q1797197",
      "historic": "memorial",
      "inscription": "Millôr",
      "memorial": "sculpture",
      "source": "survey",
      "start_date": "2013-05-27",
      "subject:wikidata": "Q1797197",
      "tourism": "artwork",
      "wikimedia_commons": "File:Banco do Millôr.jpg"
    }
  },
  {
    "type": "node",
    "id": 2333211871,
    "lat": -22.9095621,
    "lon": -43.1834043,
    "tags": {
      "addr:city": "Rio de Janeiro",
      "addr:housenumber": "68",
      "addr:street": "Rua do Lavradio",
      "addr:suburb": "Lapa",
      "name": "Casa Blanca",
      "source": "survey",
      "tourism": "hotel"
    }
  },
  {
    "type": "node",
    "id": 2333211872,
    "lat": -22.9094247,
    "lon": -43.1834507,
    "tags": {
      "addr:city": "Rio de Janeiro",
      "addr:housenumber": "62",
      "addr:postcode": "20230-070",
      "addr:street": "Rua do Lavradio",
      "name": "Castelo",
      "source": "survey",
      "tourism": "hotel"
    }
  },
  {
    "type": "node",
    "id": 2339818888,
    "lat": -22.9424441,
    "lon": -43.1805988,
    "tags": {
      "artist_name": "Henri Weigele",
      "artwork_type": "statue",
      "name": "Crepúsculo",
      "tourism": "artwork"
    }
  },
  {
    "type": "node",
    "id": 2341493525,
    "lat": -22.9510299,
    "lon": -43.1135064,
    "tags": {
      "castle_type": "fortress",
      "historic": "castle",
      "name": "Ponta do Imbuí"
    }
  },
  {
    "type": "node",
    "id": 2341493539,
    "lat": -22.8832447,
    "lon": -43.1768552,
    "tags": {
      "historic": "wreck",
      "seamark:type": "wreck",
      "seamark:wreck:category": "dangerous",
      "seamark:wreck:water_level": "always_submerged"
    }
  },
  {
    "type": "node",
    "id": 2341493540,
    "lat": -22.8846383,
    "lon": -43.1985455,
    "tags": {
      "depth:dangerous": "yes",
      "historic": "wreck",
      "seamark:type": "wreck",
      "seamark:wreck:category": "mast_showing"
    }
  },
  {
    "type": "node",
    "id": 2341493623,
    "lat": -22.8855599,
    "lon": -43.1782459,
    "tags": {
      "historic": "wreck",
      "seamark:type": "wreck",
      "seamark:wreck:category": "dangerous",
      "seamark:wreck:water_level": "always_submerged"
    }
  },
  {
    "type": "node",
    "id": 2341493633,
    "lat": -22.9270030,
    "lon": -43.1160540,
    "tags": {
      "depth:dangerous": "yes",
      "historic": "wreck",
      "seamark:type": "wreck",
      "seamark:wreck:category": "dangerous",
      "seamark:wreck:water_level": "always_submerged"
    }
  },
  {
    "type": "node",
    "id": 2341493634,
    "lat": -22.9337249,
    "lon": -43.1660043,
    "tags": {
      "depth:dangerous": "yes",
      "historic": "wreck",
      "seamark:type": "wreck",
      "seamark:wreck:category": "dangerous",
      "seamark:wreck:water_level": "always_submerged"
    }
  },
  {
    "type": "node",
    "id": 2341493658,
    "lat": -22.9424584,
    "lon": -43.1593041,
    "tags": {
      "depth:dangerous": "yes",
      "historic": "wreck",
      "seamark:type": "wreck",
      "seamark:wreck:category": "dangerous",
      "seamark:wreck:water_level": "always_submerged"
    }
  },
  {
    "type": "node",
    "id": 2341493670,
    "lat": -22.9624709,
    "lon": -43.1266803,
    "tags": {
      "depth:clearance": "11.3",
      "depth:dangerous": "yes",
      "historic": "wreck",
      "seamark:type": "wreck",
      "seamark:wreck:category": "dangerous",
      "seamark:wreck:water_level": "always_submerged"
    }
  },
  {
    "type": "node",
    "id": 2341493671,
    "lat": -22.9686498,
    "lon": -43.1536736,
    "tags": {
      "depth:dangerous": "yes",
      "historic": "wreck",
      "seamark:type": "wreck",
      "seamark:wreck:category": "dangerous",
      "seamark:wreck:water_level": "always_submerged"
    }
  },
  {
    "type": "node",
    "id": 2344504422,
    "lat": -22.9068926,
    "lon": -43.1964431,
    "tags": {
      "artist_name": "João Figueiras Lima;Romeu Alves",
      "historic": "memorial",
      "material": "bronze;concrete",
      "memorial": "bust",
      "name": "Zumbi dos Palmares",
      "start_date": "1986-11"
    }
  },
  {
    "type": "node",
    "id": 2351009183,
    "lat": -22.7876095,
    "lon": -43.1722334,
    "tags": {
      "landmark": "mast",
      "man_made": "mast",
      "seamark:landmark:category": "mast",
      "seamark:type": "landmark",
      "tower:construction": "freestanding",
      "tower:type": "communication"
    }
  },
  {
    "type": "node",
    "id": 2351011802,
    "lat": -22.8618314,
    "lon": -43.2361679,
    "tags": {
      "historic": "wreck",
      "seamark:type": "wreck",
      "seamark:wreck:category": "hull_showing"
    }
  },
  {
    "type": "node",
    "id": 2351011959,
    "lat": -22.8713320,
    "lon": -43.1309295,
    "tags": {
      "depth": "6.4",
      "depth:swept": "yes",
      "historic": "wreck",
      "seamark:type": "wreck",
      "seamark:wreck:category": "non-dangerous"
    }
  },
  {
    "type": "node",
    "id": 2351012022,
    "lat": -22.8744215,
    "lon": -43.1339084,
    "tags": {
      "landmark": "flagpole",
      "man_made": "flagpole",
      "seamark:landmark:category": "flagstaff",
      "seamark:type": "landmark"
    }
  },
  {
    "type": "node",
    "id": 2352803538,
    "lat": -22.9055798,
    "lon": -43.1833450,
    "tags": {
      "artwork_subject": "abstract",
      "artwork_type": "sculpture",
      "fixme": "resurvey",
      "material": "weathering_steel",
      "source": "Bing",
      "tourism": "artwork"
    }
  },
  {
    "type": "node",
    "id": 2363791314,
    "lat": -22.9040717,
    "lon": -43.1892330,
    "tags": {
      "artist_name": "Rodolfo Bernadelli",
      "historic": "memorial",
      "material": "bronze",
      "memorial": "statue",
      "name": "Marechal Duque de Caxias",
      "source": "Bing; survey",
      "start_date": "1899-08"
    }
  },
  {
    "type": "node",
    "id": 2379186715,
    "lat": -22.9612829,
    "lon": -43.2141478,
    "tags": {
      "addr:housenumber": "448",
      "addr:street": "Rua Jardim Botânico",
      "name": "Botanic Hostel",
      "phone": "+55 21 37952883",
      "smoking": "outside",
      "source": "survey",
      "tourism": "hostel",
      "website": "http://botanichostel.com/",
      "wheelchair": "limited"
    }
  },
  {
    "type": "node",
    "id": 2383823150,
    "lat": -22.8166151,
    "lon": -43.3230391,
    "tags": {
      "name": "Comodoro Motel",
      "tourism": "motel"
    }
  },
  {
    "type": "node",
    "id": 2384846337,
    "lat": -22.9559631,
    "lon": -43.2798995,
    "tags": {
      "information": "office",
      "name": "Centro de Visitantes",
      "tourism": "information"
    }
  },
  {
    "type": "node",
    "id": 2384858418,
    "lat": -22.9537480,
    "lon": -43.2818789,
    "tags": {
      "description": "Area frequentemente utilizada para Tai Chi Chuan mas é espaço de uso comum",
      "name": "Recanto do Tai Chi Chuan",
      "tourism": "attraction"
    }
  },
  {
    "type": "node",
    "id": 2391098575,
    "lat": -22.8592290,
    "lon": -43.4579029,
    "tags": {
      "name": "Palazzo",
      "tourism": "motel"
    }
  },